"NAME","STREET","POST_CODE","CITY","LONGITUDE","LATITUDE","HUMIDITY_AVG","PRESSURE_AVG","TEMPERATURE_AVG","PM10_AVG","PM25_AVG","TIMESTAMP"
"SZKO?A PODSTAWOWA NR 16 W ZABRZU","UL. J?ZEFA LOMPY","41-806","ZABRZE","18.8139578","50.2870184","75.06666666666666","993.9416666666666","-2.4166666666666665","144.57500000000002","118.0","2023-04-05 00:00:00.0"
"SZKO?A PODSTAWOWA NR 1 IM. W?ADYS?AWA JAGIE??Y W OSIEKU","G??WNA","32-608","OSIEK","19.2631410879493","49.9511789367323","54.916666666666664","993.0","-0.875","20.583333333333332","14.083333333333334","2023-04-05 00:00:00.0"
"SZKO?A PODSTAWOWA NR 4 IM. I SAMODZIELNEJ WARSZAWSKIEJ BRYGADY KAWALERII W GRYFICACH","UL. SIENKIEWICZA","72-300","GRYFICE","15.19512694","53.9126862","68.5","1023.8166666666666","3.2416666666666667","31.816666666666666","26.375","2023-04-05 00:00:00.0"
"SZKO?A PODSTAWOWA IM. JANA KOCHANOWSKIEGO W TOPORZYSKU","TOPORZYSKO","34-240","JORDAN?W","19.78405456500131","49.62023697527652","60.125","959.1666666666666","-3.108333333333333","17.083333333333332","11.916666666666666","2023-04-05 00:00:00.0"
"SZKO?A PODSTAWOWA IM. JANA PAW?A II W RAC?AWICACH ?L?SKICH","UL. ZWYCI?STWA","48-250","RAC?AWICE ?L?SKIE","17.771528","50.311402","93.46666666666665","1000.0416666666666","-2.9","73.77499999999999","50.00833333333333","2023-04-05 00:00:00.0"
"SZKO?A PODSTAWOWA NR 6 IM. MARII CURIE-SK?ODOWSKIEJ W ZABRZU","UL. KLONOWA","41-800","ZABRZE","18.8800148","50.3207572","68.68333333333334","994.275","-0.9166666666666666","122.93333333333334","98.73333333333333","2023-04-05 00:00:00.0"
"SZKO?A PODSTAWOWA NR 174 IM. JANA MACHULSKIEGO W ?ODZI","UL GA?CZY?SKIEGO","93-259","??D?","19.4921531558246","51.731315277961","57.24166666666667","998.4166666666666","0.5416666666666666","28.083333333333332","20.333333333333332","2023-04-05 00:00:00.0"
"SZKO?A PODSTAWOWA W STRZELECZKACH","UL. SIENKIEWICZA","47-364","STRZELECZKI","17.8541788","50.4590123","81.75384615384615","1004.2230769230769","-2.9000000000000004","55.07692307692308","40.55384615384616","2023-04-05 00:00:00.0"
"SZKO?A PODSTAWOWA NR 2 W K?TACH WROC?AWSKICH","UL. BRZOZOWA","55-080","K?TY WROC?AWSKIE","16.7676476251126","51.0348159032207","66.74166666666666","1007.0","-3.4","27.583333333333332","19.5","2023-04-05 00:00:00.0"
"SPORTOWA SZKO?A PODSTAWOWA W S?UPSKU","UL. MARII ZABOROWSKIEJ","76-200","S?UPSK","17.0284824","54.464148","74.74166666666666","1018.5916666666667","-0.9249999999999999","25.166666666666668","19.175","2023-04-05 00:00:00.0"
"SZKO?A PODSTAWOWA NR 4 IM. MARII KONOPNICKIEJ W SIERADZU","LE?NIEWSKIEGO","98-200","SIERADZ","18.7355592274991","51.5890109934242","57.791666666666664","1006.0","1.6583333333333332","28.083333333333332","19.5","2023-04-05 00:00:00.0"
"ZESP?? SZKOLNO-PRZEDSZKOLNY NR 1 W KIELCACH","BARWINEK","25-150","KIELCE","20.6305497266936","50.8467400402926","60.85833333333333","988.0","-1.925","33.416666666666664","22.166666666666668","2023-04-05 00:00:00.0"
"SZKO?A PODSTAWOWA W POLANCE WIELKIEJ","UL. D?UGA","32-607","POLANKA WIELKA","19.326337","49.985272","61.975","994.8833333333333","-1.375","30.21666666666667","21.59166666666667","2023-04-05 00:00:00.0"
"MI?DZYNARODOWA SZKO?A PODSTAWOWA EDUKACJI INNOWACYJNEJ","POMORSKA","90-225","??D?","19.4731112204021","51.7782880299031","62.458333333333336","996.0","0.24166666666666667","24.0","17.333333333333332","2023-04-05 00:00:00.0"
"SZKO?A PODSTAWOWA IM. KARDYNA?A STEFANA WYSZY?SKIEGO W GRUSZOWIE WIELKIM","","33-200","GRUSZ?W WIELKI","21.03335443","50.19213307","63.53333333333333","1000.2083333333334","0.05000000000000001","13.924999999999999","12.133333333333333","2023-04-05 00:00:00.0"
"SZKO?A PODSTAWOWA W O?AROWIE PRZY STOWARZYSZENIU NA RZECZ ROZWOJU ZESPO?U SZK?? W O?AROWIE IM. MARII SK?ODOWSKIEJ-CURIE","OSIEDLE WZG?RZE","27-530","O?AR?W","21.6575780327762","50.8900608727305","42.79999999999999","1002.0","8.5","4.0","4.0","2023-04-05 00:00:00.0"
"SZKO?A PODSTAWOWA NR 5 IMIENIA GRZEGORZA PIRAMOWICZA","ZAMKOWA","95-200","PABIANICE","19.3414155847896","51.666091005646","61.64166666666667","1000.0","0.9","34.416666666666664","22.833333333333332","2023-04-05 00:00:00.0"
"SZKO?A PODSTAWOWA NR 10 IM. MARII KONOPNICKIEJ W KALISZU","UL. KARPACKA","62-800","KALISZ","18.0789890134445","51.739929027173","55.15833333333333","1007.0","3.216666666666667","2.8333333333333335","2.8333333333333335","2023-04-05 00:00:00.0"
"SZKO?A PODSTAWOWA IM. GEN. DYW. TADEUSZA KUTRZEBY W KO?LU","","95-011","KO?LE","19.58919231","51.93825404","92.14999999999999","1006.25","0.26666666666666666","22.066666666666666","20.225","2023-04-05 00:00:00.0"
"SZKO?A PODSTAWOWA SI?STR NAZARETANEK W KALISZU","UL. HARCERSKA","62-800","KALISZ","18.0821487097544","51.7584042438643","54.56666666666666","1011.5","2.2416666666666667","35.333333333333336","25.5","2023-04-05 00:00:00.0"
"TECHNIKUM NR 3 W MALBORKU","UL. ALEJA WOJSKA POLSKIEGO","82-200","MALBORK","19.0530892","54.0360115","61.892307692307696","1023.9692307692308","2.207692307692308","8.700000000000001","7.03076923076923","2023-04-05 00:00:00.0"
"SZKO?A PODSTAWOWA W LUCIENIU","","09-500","LUCIE?","19.472959","52.4884269","76.88181818181819","1015.2181818181817","-0.8","9.409090909090908","9.436363636363636","2023-04-05 00:00:00.0"
"SZKO?A PODSTAWOWA NR 6 TOMASZOWIE MAZOWIECKI","GMINNA","97-200","TOMASZ?W MAZOWIECKI","20.062507540426","51.5213208458871","45.20000000000001","993.0","21.899999999999995","9.0","8.0","2023-04-05 00:00:00.0"
"ZESP?? SZKOLNO - PRZEDSZKOLNY W Z?OCZEWIE","UL. BURZENI?SKA","98-270","Z?OCZEW","18.6090799115871","51.4178804156053","58.55833333333334","1001.75","1.5666666666666667","33.666666666666664","20.916666666666668","2023-04-05 00:00:00.0"
"SZKO?A PODSTAWOWA IM. RED JANA CISZEWSKIEGO W WALE?CZOWIE","UL. SZKOLNA","42-151","WALE?CZ?W","18.865972","50.923707","74.0909090909091","994.0","-2.390909090909091","38.04545454545455","33.61818181818182","2023-04-05 00:00:00.0"
"SZKO?A PODSTAWOWA NR 3 IM. TADEUSZA KO?CIUSZKI W G?OWNIE","KARASICKA","95-015","G?OWNO","19.6933836827724","51.9623804301233","54.125","1007.0","2.566666666666667","30.083333333333332","20.083333333333332","2023-04-05 00:00:00.0"
"NIEPUBLICZNA SZKO?A PODSTAWOWA W BZINICY STAREJ","UL. KAROLA MIARKI","46-380","BZINICA STARA","18.4612867","50.6892203","87.51666666666667","996.6750000000001","-3.8666666666666667","42.108333333333334","34.233333333333334","2023-04-05 00:00:00.0"
"SZKO?A PODSTAWOWA NR 2 IM. MARII SK?ODOWSKIEJ-CURIE W KRZEPICACH","UL. SK?ODOWSKIEJ","42-160","KRZEPICE","18.702433","50.964886","86.4","997.9076923076923","-2.9692307692307693","71.3","54.361538461538466","2023-04-05 00:00:00.0"
"PUBLICZNA SZKO?A PODSTAWOWA IM. MIKO?AJA KOPERNIKA W TARNOWIE OPOLSKIM","UL. KOPERNIKA","46-050","TARN?W OPOLSKI","17.615714","50.7548759","76.2","1004.75","-2.4499999999999997","135.025","101.47500000000001","2023-04-05 00:00:00.0"
"SZKO?A PODSTAWOWA NR 2 I. T. KO?CIUSZKI W SKIERNIEWICACH","UL. 1 MAJA 15","96-100","SKIERNIEWICE","20.1360401692772","51.9533513485132","58.6","992.0","12.300000000000002","25.0","17.0","2023-04-05 00:00:00.0"
"SZKO?A PODSTAWOWA NR 1 IM.POWSTANC?W WIELKOPOLSKICH W LEGNICY","UL. KAMIENNA","59-220","LEGNICA","16.173446","51.210851","57.40833333333333","1011.5333333333333","1.2333333333333334","22.875","19.241666666666667","2023-04-05 00:00:00.0"
"III LICEUM OG?LNOKSZTA?C?CE IM. KAZIMIERZA KOSI?SKIEGO W K?OBUCKU","UL. KS. IGNACEGO SKORUPKI","42-100","K?OBUCK","18.9423379","50.9004679","77.80833333333334","994.725","-2.716666666666667","87.59166666666665","79.55","2023-04-05 00:00:00.0"
"PUBLICZNA SZKO?A PODSTAWOWA W RZEJOWICACH","RZEJOWICE 91","97-512","RZEJOWICE","19.6926550845855","51.0951984779432","59.76666666666667","994.0","-3.7083333333333335","37.166666666666664","24.75","2023-04-05 00:00:00.0"
"PUBLICZNA SZKO?A PODSTAWOWA NR 1 Z ODDZIA?AMI DWUJ?ZYCZNYMI IM. JANUSZA KUSOCI?SKIEGO W SOKO?OWIE PODLASKIM","UL. POLNA","08-300","SOKO??W PODLASKI","22.2511161851957","52.4015792848938","87.84166666666665","1000.0","-3.908333333333333","12.75","9.916666666666666","2023-04-05 00:00:00.0"
"SALEZJA?SKA SZKO?A PODSTAWOWA W SOKO?OWIE PODLASKIM","UL. KS. BOSKO","08-300","SOKO??W PODLASKI","22.2456523986875","52.4061965607124","76.7","1010.0","2.6","18.636363636363637","13.545454545454545","2023-04-05 00:00:00.0"
"SZKO?A PODSTAWOWA NR 10 IM ZOFII KOSSAK W LEGNICY","UL. JAWORZY?SKA","59-220","LEGNICA","16.1588159","51.1992709","60.85","1010.7333333333332","1.1583333333333334","18.258333333333333","15.383333333333333","2023-04-05 00:00:00.0"
"NIEPUBLICZNA SZKO?A PODSTAWOWA MOST W KSI??ENICACH","UL. MAZOWIECKA","05-825","KSI??ENICE","20.6848117121696","52.0873791983291","63.400000000000006","1009.0","-2.5749999999999997","34.166666666666664","22.166666666666668","2023-04-05 00:00:00.0"
"SZKO?A PODSTAWOWA NR 9 W LEGNICY","UL. MARYNARSKA","59-220","LEGNICA","16.141123","51.202816","63.85","1010.0500000000001","0.6749999999999999","29.933333333333334","21.95","2023-04-05 00:00:00.0"
"SZKO?A PODSTAWOWA NR 1 IM. ?W.JANA PAW?A II W K?ODAWIE","UL. KO?CIELNA","62-650","K?ODAWA","18.9134684","52.2542661","99.58333333333333","1010.3249999999999","0.15","48.99166666666667","40.53333333333333","2023-04-05 00:00:00.0"
"SZKO?A PODSTAWOWA NR 31 IM. GEN. J?ZEFA HALLERA W TORUNIU","UL. W?ADYS?AWA DZIEWULSKIEGO","87-100","TORU?","18.6812901","53.0291419","74.20833333333333","1017.0083333333333","-0.6583333333333333","51.175000000000004","37.925000000000004","2023-04-05 00:00:00.0"
"SZKO?A PODSTAWOWA IM.OR?A BIA?EGO W DOBRZENIU","","56-410","DOBRZE?","17.2950269","51.2416989","69.97500000000001","1005.9250000000001","-0.075","50.416666666666664","41.75833333333333","2023-04-05 00:00:00.0"
"SZKO?A PODSTAWOWA W D?UGOPOLU DOLNYM","","57-520","D?UGOPOLE DOLNE","16.6369911","50.256696","86.26363636363637","982.2545454545453","-4.027272727272727","41.13636363636363","35.90909090909091","2023-04-05 00:00:00.0"
"PUBLICZNA SZKO?A PODSTAWOWA IM. W?ADYS?AWA REYMONTA W WYSOKIEJ","","59-170","WYSOKA","17.0835566","53.180879","74.47500000000001","1008.275","-0.9166666666666666","1.55","1.1666666666666667","2023-04-05 00:00:00.0"
"SZKO?A PODSTAWOWA IM.W?ADYS?AWA STANIS?AWA REYMONTA W ?CI?GNACH","","58-535","?CI?GNY","15.7770925","50.7908626","70.86666666666666","964.5666666666666","-3.4499999999999997","26.46666666666667","19.650000000000002","2023-04-05 00:00:00.0"
"SZKO?A PODSTAWOWA W DRO?TOWICACH","","56-500","DRO?TOWICE","17.59580112646376","51.33562166466934 ","69.63333333333334","1000.9250000000001","-0.4083333333333334","15.866666666666667","14.766666666666666","2023-04-05 00:00:00.0"
"SZKO?A PODSTAWOWA IM. KAROLA KURPI?SKIEGO WE W?OSZAKOWICACH","UL. KAROLA KURPI?SKIEGO","64-140","W?OSZAKOWICE","16.3711235","51.9317237","66.40833333333333","1015.5166666666668","1.5333333333333332","105.60000000000001","59.51666666666666","2023-04-05 00:00:00.0"
"SZKO?A PODSTAWOWA NR 7 IM. HENRYKA SIENKIEWICZA W ORZESZU","UL. UCZNIOWSKA","43-180","ORZESZE","18.797868","50.112122","73.77499999999999","992.0416666666666","-2.2083333333333335","140.775","107.61666666666667","2023-04-05 00:00:00.0"
"SZKO?A PODSTAWOWA Z ODDZIA?AMI INTEGRACYJNYMI W ?OMNICY","UL. KARKONOSKA","58-508","?OMNICA","15.8067664","50.8737685","85.6846153846154","983.4076923076923","-4.446153846153846","56.3","44.276923076923076","2023-04-05 00:00:00.0"
"POWIATOWA SZKO?A PODSTAWOWA SPECJALNA W BOLES?AWCU","UL. BANKOWA","59-700","BOLES?AWIEC","15.568652524605456","51.260498457733576 ","70.93333333333334","1002.9","-0.9666666666666667","89.08333333333333","61.975","2023-04-05 00:00:00.0"
"SZKO?A PODSTAWOWA IM. HENRYKA SIENKIEWICZA W KONOPISKACH","UL. SPORTOWA","42-274","KONOPISKA","19.0078926","50.7263775","80.3","990.4916666666667","-4.3","40.28333333333333","26.083333333333332","2023-04-05 00:00:00.0"
"SPO?ECZNA SZKO?A PODSTAWOWA IM. STANIS?AWA MONIUSZKI W KUDOWEJ-ZDROJU","UL. S?ONE","57-350","KUDOWA-ZDR?J","16.2426605","50.4427156","80.64999999999999","980.7999999999998","-3.141666666666667","75.77499999999999","69.35000000000001","2023-04-05 00:00:00.0"
"SZKO?A PODSTAWOWA NR 13 W ZAWIERCIU","UL. FILARET?W","42-400","ZAWIERCIE","19.4911184","50.4934888","80.175","978.4","-4.066666666666666","53.28333333333333","38.358333333333334","2023-04-05 00:00:00.0"
"SZKO?A PODSTAWOWA NR 8 W ZAWIERCIU","UL. WOJSKA POLSKIEGO","42-400","ZAWIERCIE","19.4092199","50.486569","69.20833333333333","985.6666666666666","-1.5916666666666668","91.60833333333333","68.10833333333333","2023-04-05 00:00:00.0"
"SZKO?A PODSTAWOWA NR 7 IM. MARII KONOPNICKIEJ W ZAWIERCIU","UL. O?WIATOWA","42-400","ZAWIERCIE","19.5150167","50.4773682","79.89999999999999","985.3833333333333","-2.9333333333333336","114.02499999999999","80.05","2023-04-05 00:00:00.0"
"SZKO?A PODSTAWOWA NR 3 W ZAWIERCIU","UL. MARII SK?ODOWSKIEJ-CURIE","42-400","ZAWIERCIE","19.4347172","50.4796517","78.10000000000001","983.4333333333334","-2.975","103.125","73.02499999999999","2023-04-05 00:00:00.0"
"II LICEUM OG?LNOKSZTA?C?CE IM. ADAMA ASNYKA W BIELSKU-BIA?EJ","UL. JUTRZENKI","43-300","BIELSKO-BIA?A","19.0635478","49.8094065","60.23846153846154","980.2692307692307","-1.376923076923077","44.83846153846154","32.49230769230769","2023-04-05 00:00:00.0"
"SZKO?A PODSTAWOWA NR 2 IM. STANIS?AWA SZYMA?SKIEGO W ZAWIERCIU","UL. MIECZYS?AWA NIEDZIA?KOWSKIEGO","42-400","ZAWIERCIE","19.4166259","50.487743","75.55833333333334","984.1750000000001","-2.6999999999999997","130.86666666666667","116.91666666666667","2023-04-05 00:00:00.0"
"SZKO?A PODSTAWOWA NR 1 IM.BPA MARCINA KROMERA W BIECZU","UL. GRODZKA","38-340","BIECZ","21.252429","49.730338","69.47500000000001","991.7999999999998","0.16666666666666666","16.191666666666666","13.358333333333334","2023-04-05 00:00:00.0"
"SZKO?A PODSTAWOWA NR 1 IM. BOHATER?W WESTERPLATTE W BIELSKU-BIA?EJ","UL. DYWIZJI KO?CIUSZKOWSKIEJ","43-300","BIELSKO-BIA?A","19.0637789","49.8227955","58.65833333333333","981.025","-1.6083333333333334","12.883333333333333","11.15","2023-04-05 00:00:00.0"
"SZKO?A PODSTAWOWA NR 5 W RUDZIE ?L?SKIEJ","UL. PIOTRA NIEDURNEGO","41-708","RUDA ?L?SKA","18.8815597","50.30117879","67.45","988.225","-1.6666666666666667","70.75","55.51666666666667","2023-04-05 00:00:00.0"
"SZKO?A PODSTAWOWA NR 2 IM. JANA PAW?A II W POR?BIE","UL. WIEDZY","42-480","POR?BA","19.361528","50.489263","97.63636363636364","986.1","-3.963636363636364","55.845454545454544","44.99090909090909","2023-04-05 00:00:00.0"
"SZKO?A PODSTAWOWA NR 4 W BIELSKU-BIA?EJ","UL. EMILII PLATER","43-300","BIELSKO-BIA?A","19.0583845","49.8223768","59.56666666666666","979.5749999999999","-1.3833333333333335","41.65","27.566666666666666","2023-04-05 00:00:00.0"
"PUBLICZNA SZKO?A PODSTAWOWA IM. JANA KOCHANOWSKIEGO W DOBRYSZYCACH","UL. LE?NA","97-505","DOBRYSZYCE","19.4126126","51.1463112","77.90833333333333","998.1","-2.75","91.45833333333333","71.97500000000001","2023-04-05 00:00:00.0"
"SZKO?A PODSTAWOWA IM. STANIS?AWA STASZICA W BOBOWEJ","UL. BOHATER?W BOBOWEJ","38-350","BOBOWA","20.9509659","49.7102798","70.48333333333333","988.375","0.17500000000000002","20.375","16.125","2023-04-05 00:00:00.0"
"SZKO?A PODSTAWOWA IM. IRENY SENDLEROWEJ W WOLI","","87-620","WOLA","19.066111","52.9391449","91.64166666666667","1011.5333333333333","-1.1500000000000001","35.35","26.78333333333333","2023-04-05 00:00:00.0"
"SZKO?A PODSTAWOWA NR 14 W ZAK?ADZIE POPRAWCZYM I SCHRONISKU DLA NIELETNICH W ?WIDNICY","UL. SPRZYMIERZE?C?W","58-100","?WIDNICA","16.4865532","50.8375136","73.58461538461539","997.823076923077","-1.3846153846153846","56.53076923076923","47.13076923076923","2023-04-05 00:00:00.0"
"LICEUM OG?LNOKSZTA?C?CE IM. STANIS?AWA STASZICA W RZEPINIE","UL. WOJSKA POLSKIEGO","69-110","RZEPIN","14.83966983","52.34727052","85.625","1020.3666666666667","0.008333333333333331","58.88333333333333","51.99166666666667","2023-04-05 00:00:00.0"
"NIEPUBLICZNA SZKO?A PODSTAWOWA INTERNATIONAL ELEMENTARY SCHOOL W KAROLINOWIE","","09-142","KAROLINOWO","20.547247","52.5516469","75.78","1010.11","-1.48","37.04","35.69","2023-04-05 00:00:00.0"
"SZKO?A PODSTAWOWA IM. FRYDERYKA CHOPINA W WOJSZCZYCACH","","05-180","WOJSZCZYCE","20.6139434","52.494382","85.39166666666667","1011.4583333333334","-3.3249999999999997","33.43333333333333","23.333333333333332","2023-04-05 00:00:00.0"
"SZKO?A PODSTAWOWA IM.MIKO?AJA KOPERNIKA W ???YNIE II","","87-123","???YN","19.145136","51.919438","74.69166666666666","1013.5583333333334","-1.9833333333333334","23.633333333333336","21.075","2023-04-05 00:00:00.0"
"NIEPUBLICZNA SZKO?A PODSTAWOWA ""GALILEO"" NR 1 W NAKONOWIE","","87-853","NAKONOWO","19.0568663","52.5562316","83.31666666666666","1013.6916666666666","-0.5166666666666667","41.80833333333333","35.766666666666666","2023-04-05 00:00:00.0"
"SZKO?A PODSTAWOWA NR 7 Z ODDZIA?AMI DWUJ?ZYCZNYMI IM. KORNELA MAKUSZY?SKIEGO W MYS?OWICACH","UL. G?RNICZA","41-400","MYS?OWICE","19.1660513","50.2080466","60.199999999999996","991.9499999999999","-0.9249999999999999","49.85","40.625","2023-04-05 00:00:00.0"
"SZKO?A PODSTAWOWA IM. MARII KONOPNICKIEJ W JAMKACH-KORZONKU","","42-274","KORZONEK","18.9878115","50.712784","81.575","988.2333333333332","-4.283333333333333","30.0","21.566666666666666","2023-04-05 00:00:00.0"
"SZKO?A PODSTAWOWA NR 54 Z ODDZIA?AMI INTEGRACYJNYMI W CZ?STOCHOWIE","UL. JERZEGO KUKUCZKI","42-224","CZ?STOCHOWA","19.137204428836377","50.835792530242145","76.74166666666666","994.5666666666666","-3.1833333333333336","64.39166666666667","50.1","2023-04-05 00:00:00.0"
"TECHNIKUM W ZESPOLE SZK?? PONADPODSTAWOWYCH IM. IN?. J?ZEFA MARKA W MSZANIE DOLNEJ","UL. J?ZEFA MARKA","34-730","MSZANA DOLNA","20.0783649","49.6670619","69.41666666666667","975.1999999999999","-1.2666666666666666","17.283333333333335","13.783333333333333","2023-04-05 00:00:00.0"
"SZKO?A PODSTAWOWA IM. JANA PAW?A II W D?BIU","UL. 3 MAJA","62-660","D?BIE","18.8198211","52.0891079","84.59166666666667","1012.4416666666666","1.8666666666666665","47.38333333333333","36.125","2023-04-05 00:00:00.0"
"SZKO?A PODSTAWOWA NR 1 IM.H.ZAPA?OWICZA W ZAWOI CENTRUM","","34-222","ZAWOJA","19.5553154","49.6585591","66.55","959.2166666666667","-3.0083333333333333","14.341666666666667","12.975","2023-04-05 00:00:00.0"
"SZKO?A PODSTAWOWA NR 227 IM. LOTNIK?W POLSKICH W WARSZAWIE","UL. ASTRONAUT?W","02-154","WARSZAWA","20.9733384851892","52.1842885921741","57.050000000000004","1009.0","1.3583333333333334","6.0","5.333333333333333","2023-04-05 00:00:00.0"
"SZKO?A PODSTAWOWA NR 29 W LUBLINIE","WAJDELOTY","20-604","LUBLIN","22.5237824136724","51.2433286093504","61.86666666666667","997.0","-0.5083333333333333","21.0","14.666666666666666","2023-04-05 00:00:00.0"
"SZKO?A PODSTAWOWA IM. MARII KONOPNICKIEJ W KRACZEWICACH","KRACZEWICE PRYWATNE","24-320","PONIATOWA","20.6848117121696","52.0873791983291","72.24166666666666","996.9166666666666","-0.7999999999999999","30.583333333333332","19.5","2023-04-05 00:00:00.0"
"SZKO?A PODSTAWOWA NR 1 IM. HENRYKA SIENKIEWICZA W SZCZEBRZESZYNIE","UL. OGRODOWA 16","22-460","SZCZEBRZESZYN","22.9796748637203","50.7003574782764","58.05833333333334","995.0","-0.27499999999999997","14.166666666666666","12.0","2023-04-05 00:00:00.0"
"SZKO?A PODSTAWOWA W PNI?WKU","PNI?WEK","22-400","ZAMO??","23.2998174367363","50.6761750607991","24.7","991.0","36.6","4.0","4.0","2023-04-05 00:00:00.0"
"SZKO?A PODSTAWOWA NR 28 Z ODDZIA?AMI INTEGRACYJNYMI IM. SYN?W PU?KU ZIEMI LUBELSKIEJ W LUBLINIE","UL. RADO?CI 13","20-530","LUBLIN","22.5315528097693","51.229057205077","52.199999999999996","999.0","2.475","15.583333333333334","12.25","2023-04-05 00:00:00.0"
"SZKO?A PODSTAWOWA NR 5 IM. KSI?DZA JANA TWARDOWSKIEGO W BI?GORAJU","NADSTAWNA","23-400","BI?GORAJ","22.7173838213877","50.5360089783588","49.291666666666664","998.0","3.1333333333333333","24.75","17.75","2023-04-05 00:00:00.0"
"SZKO?A PODSTAWOWA NR 3 IM. JANA MATEJKI W PRUSZCZU GDA?SKIM","MATEJKI","83-000","PRUSZCZ GDA?SKI","18.636981","54.255547","57.46666666666667","1027.0","1.5333333333333332","0.6666666666666666","0.37999999999999995","2023-04-05 00:00:00.0"
"SZKO?A PODSTAWOWA NR 4 IM. IGNACEGO JANA PADEREWSKIEGO W PRUSZCZU GDA?SKIM","KASPROWICZA","83-000","PRUSZCZ GDA?SKI","18.670231","54.263405","56.03333333333333","1027.6000000000001","1.6000000000000003","2.066666666666667","1.0666666666666667","2023-04-05 00:00:00.0"
"SZKO?A PODSTAWOWA NR 13 W WI?LE MA?EJ","SOKOLA","43-243","WIS?A MA?A","18.793987","49.93368","99.90000000000002","999.5666666666666","-1.2666666666666666","44.23333333333333","28.16","2023-04-05 00:00:00.0"
"ZESP?? SZKOLNO-PRZEDSZKOLNY W STUDZIENICACH","?W. JANA PAW?A II 74","43-215","STUDZIENICE","18.983576","50.016514","60.03333333333333","1005.3000000000001","-1.0333333333333332","19.233333333333334","11.063333333333333","2023-04-05 00:00:00.0"
"SZKO?A PODSTAWOWA IM. JANUSZA KORCZAKA W SUSZCU","SZKOLNA","43-267","SUSZEC","18.79149","50.03719","97.33333333333333","993.7599999999999","-2.4","44.666666666666664","26.25333333333333","2023-04-05 00:00:00.0"
"SZKO?A PODSTAWOWA NR 11 W POR?BIE","SZKOLNA","43-200","POR?BA","18.876488","49.984417","71.4","999.7666666666668","-1.0","1.0","0.5566666666666666","2023-04-05 00:00:00.0"
"SZKO?A PODSTAWOWA IM. MIKO?AJA KOPERNIKA W WYSOCKU MA?YM","KO?CIELNA","63-421","WYSOCKO MA?E","17.84109","51.61033","76.5","1000.7666666666668","1.2666666666666666","58.06666666666666","32.38","2023-04-05 00:00:00.0"
"SZKO?A PODSTAWOWA NR 3 IM. JULIANA TUWIMA W NOWEJ SOLI","BOTANICZNA","67-100","NOWA S?L","15.71186","51.82115","54.9","1020.8000000000001","3.966666666666667","25.400000000000002","14.023333333333333","2023-04-05 00:00:00.0"
"ZESP?? SZKOLNO-PRZEDSZKOLNY W MESZNIE","MESZNO","48-385","MESZNO","17.15378","50.43684","99.86666666666667","986.6333333333332","-0.3333333333333333","26.833333333333332","16.996666666666666","2023-04-05 00:00:00.0"
"SZKO?A PODSTAWOWA IM. 16. PU?KU U?AN?W WIELKOPOLSKICH W GRUPIE","SZKOLNA","86-134","GRUPA","18.643229","53.506348","72.98666666666666","1018.56","0.9566666666666667","22.296666666666667","12.073333333333332","2023-04-05 00:00:00.0"
"SZKO?A PODSTAWOWA IM. POWSTA?C?W WIELKOPOLSKICH W BUDZYNIU","ROGOZI?SKA","64-840","BUDZY?","16.983885","52.8847","74.06666666666666","1014.07","2.033333333333333","22.296666666666667","13.08","2023-04-05 00:00:00.0"
"SZKO?A PODSTAWOWA W SWORNEGACIACH","SZKOLNA","89-608","SWORNEGACIE","17.503073","53.86227","61.76666666666667","1010.6333333333333","0.6333333333333333","0.4333333333333333","0.22333333333333336","2023-04-05 00:00:00.0"
"SZKO?A PODSTAWOWA IM. JULIUSZA LIGONIA W STRZEBINIU","LOMPY","42-288","STRZEBI?","18.902967","50.61693","92.15000000000002","982.7666666666668","9.58","65.03333333333335","42.02333333333333","2023-04-05 00:00:00.0"
"SZKO?A PODSTAWOWA IM. OR?A BIA?EGO W RASZ?WCE","1 MAJA","59-307","RASZ?WKA","16.18346","51.30514","99.90000000000002","1018.4333333333334","0.3666666666666667","55.833333333333336","32.733333333333334","2023-04-05 00:00:00.0"
"SZKO?A PODSTAWOWA IM. TADEUSZA KO?CIUSZKI W MUNINIE","3-GO MAJA","37-514","MUNINA","22.725977","49.997936","99.90000000000002","998.6666666666666","1.9000000000000001","29.666666666666668","18.080000000000002","2023-04-05 00:00:00.0"
"SZKO?A PODSTAWOWA IM. ALEKSANDRA FREDRY W SUROCHOWIE","SUROCH?W","37-500","SUROCH?W","22.7635","50.02385","80.54","997.4333333333334","0.64","24.583333333333332","14.46","2023-04-05 00:00:00.0"
"ZESP?? SZKOLNO-PRZEDSZKOLNY W S?ODKOWIE","S?ODK?W","62-700","S?ODK?W","18.43276","52.01758","74.25999999999999","1006.6466666666666","2.11","13.046666666666667","6.913333333333333","2023-04-05 00:00:00.0"
"SZKO?A PODSTAWOWA IM. LOTNIK?W ALIANCKICH W I?OWEJ","PIASKOWA","68-120","I?OWA","15.20461","51.50227","99.90000000000002","1009.3000000000001","1.7666666666666666","64.13333333333334","36.54","2023-04-05 00:00:00.0"
"ZESP?? SZKOLNO-PRZEDSZKOLNY W BO?EJOWICACH","BO?EJOWICE","59-700","BO?EJOWICE","15.541525","51.244331","99.90000000000002","1003.0","-1.0999999999999999","8.933333333333334","5.02","2023-04-05 00:00:00.0"
"ZESP?? SZKOLNO-PRZEDSZKOLNY W BRZE?NIKU","BRZE?NIK","59-700","BRZE?NIK","15.467881","51.243537","99.90000000000002","1004.1999999999999","1.1666666666666667","60.26666666666667","33.81333333333333","2023-04-05 00:00:00.0"
"SZKO?A PODSTAWOWA W D?BROWIE BOLES?AWIECKIEJ","D?BROWA BOLES?AWIECKA","59-700","D?BROWA BOLES?AWIECKA","15.57337","51.325929","99.90000000000002","1007.3000000000001","0.3333333333333333","53.199999999999996","33.18333333333333","2023-04-05 00:00:00.0"
"ZESP?? SZKOLNO-PRZEDSZKOLNY W KRA?NIKU DOLNYM","KRA?NIK DOLNY","59-700","KRA?NIK DOLNY","15.607869","51.307800","70.91666666666667","1016.16","3.0700000000000003","25.900000000000002","14.716666666666667","2023-04-05 00:00:00.0"
"ZESP?? SZKOLNO-PRZEDSZKOLNY W KRUSZYNIE","KASZTANOWA","59-700","KRUSZYN","15.619282","51.260563","70.88333333333334","1016.16","3.0766666666666667","25.71666666666667","14.813333333333333","2023-04-05 00:00:00.0"
"ZESP?? SZKOLNO-PRZEDSZKOLNY W OCICACH","OCICE","59-730","OCICE","15.492642","51.201123","99.90000000000002","1001.2333333333332","-0.3333333333333333","31.36666666666667","18.703333333333333","2023-04-05 00:00:00.0"
"ZESP?? SZKOLNO-PRZEDSZKOLNY W TRZEBIENIU","LE?NA","59-700","TRZEBIE?","15.599295","51.390285","66.73333333333333","1016.4166666666666","2.956666666666667","20.55666666666667","11.056666666666667","2023-04-05 00:00:00.0"
"ZESP?? SZKOLNO-PRZEDSZKOLNY W ?ELISZOWIE","?ELISZ?W","59-700","?ELISZ?W","15.636493","51.188462","5.0","999.6","-0.16666666666666666","36.4","22.72","2023-04-05 00:00:00.0"
"PUBLICZNA SZKO?A PODSTAWOWA NR 3 W NISKU","PIASKOWA","37-400","NISKO","22.14047","50.50816","100.0","1001.4666666666667","-2.566666666666667","26.666666666666668","20.666666666666668","2023-04-05 00:00:00.0"
"SZKO?A PODSTAWOWA IM. MARII SK?ODOWSKIEJ-CURIE W KAW?CZYNIE","KAW?CZYN","62-704","KAW?CZYN","18.53126","51.90873","77.60333333333334","1008.9633333333333","1.8866666666666667","16.546666666666667","10.046666666666667","2023-04-05 00:00:00.0"
"PUBLICZNA SZKO?A PODSTAWOWA IM. MARII KONOPNICKIEJ W JORDANOWIE ?L?SKIM","WROC?AWSKA","55-065","JORDAN?W ?L?SKI","16.8656","50.8654","99.90000000000002","1008.1999999999999","-3.033333333333333","85.5","46.29333333333333","2023-04-05 00:00:00.0"
"SZKO?A PODSTAWOWA IM. JANA PAW?A II W RUDNEJ","PIASKOWA","59-305","RUDNA","16.26114","51.51127","89.89999999999999","1016.8666666666667","0.6333333333333333","1.7","0.7466666666666666","2023-04-05 00:00:00.0"
"SZKO?A PODSTAWOWA IM. BOHATER?W WESTERPLATTE W CHOBIENI","SZKOLNA","59-305","CHOBIENIA","16.44566","51.54124","93.96666666666665","1018.1666666666666","0.30000000000000004","4.6000000000000005","2.6966666666666668","2023-04-05 00:00:00.0"
"ZESP?? SZKOLNO-PRZEDSZKOLNY W LELOWIE","SZCZEKOCI?SKA","42-235","LEL?W","19.63399","50.68339","72.14666666666666","996.3266666666667","-1.1666666666666667","26.97666666666667","15.383333333333335","2023-04-05 00:00:00.0"
"SZKO?A PODSTAWOWA NR 3 IM. W?ADYS?AWA BRONIEWSKIEGO W ?WIEBODZICACH","?WIDNICKA","58-160","?WIEBODZICE","16.322191","50.859905","97.66666666666667","993.5666666666666","-1.8333333333333333","52.26666666666667","29.48","2023-04-05 00:00:00.0"
"SZKO?A PODSTAWOWA NR 3 IM. KORNELA MAKUSZY?SKIEGO W KO?MINIE WIELKOPOLSKIM","KOPERNIKA","63-720","KO?MIN WIELKOPOLSKI","17.447794","51.83286","68.76666666666667","1011.4333333333334","1.4666666666666668","19.099999999999998","10.493333333333332","2023-04-05 00:00:00.0"
"ZESP?? SZKOLNO-PRZEDSZKOLNY W WI?CKOWICACH","GROMADZKA","62-070","WI?CKOWICE","16.638373","52.396735","72.5","1019.6666666666666","1.0999999999999999","20.866666666666667","13.116666666666667","2023-04-05 00:00:00.0"
"PUBLICZNA SZKO?A PODSTAWOWA NR 5 IM. W?ADYS?AWA BRONIEWSKIEGO W NOWEJ SOLI","WALKI M?ODYCH","67-100","NOWA S?L","15.72476","51.78292","88.8","1016.1333333333333","2.766666666666667","46.73333333333333","30.423333333333332","2023-04-05 00:00:00.0"
"ZESP?? EDUKACYJNY W KOLSKU","PIASTOWSKA","67-415","KOLSKO","15.961961","51.960693","61.36666666666667","1013.9","3.033333333333333","24.03333333333333","14.33","2023-04-05 00:00:00.0"
"SZKO?A PODSTAWOWA NR 2 IM. KR?LOWEJ JADWIGI W SZCZYRKU","MY?LIWSKA","43-370","SZCZYRK","19.004925","49.704475","74.46333333333332","992.6666666666666","-1.1066666666666667","32.583333333333336","18.31","2023-04-05 00:00:00.0"
"SZKO?A PODSTAWOWA NR 3 IM. MARII KONOPNICKIEJ W KOLE","TORU?SKA","62-600","KO?O","18.63092","52.201656","99.90000000000002","1029.3333333333333","3.4333333333333336","8.0","4.406666666666667","2023-04-05 00:00:00.0"
"SZKO?A PODSTAWOWA IM. JANA PAW?A II W MIKORZYNIE","MIKORZYN","63-600","MIKORZYN","18.026148","51.36473","71.97000000000001","1001.06","0.57","30.003333333333334","17.46666666666667","2023-04-05 00:00:00.0"
"SZKO?A PODSTAWOWA NR 1 IM. BOHATER?W WESTERPLATTE W K?PNIE","HENRYKA SIENKIEWICZA","63-600","K?PNO","17.987194","51.27619","74.03333333333333","1010.6666666666666","3.233333333333333","22.633333333333336","14.31","2023-04-05 00:00:00.0"
"SZKO?A PODSTAWOWA NR 3 IM. MIKO?AJA KOPERNIKA W GI?YCKU","WIEJSKA","11-500","GI?YCKO","21.76714","54.053436","84.60000000000001","993.6","-3.4333333333333336","54.54","35.26","2023-04-05 00:00:00.0"
"SZKO?A PODSTAWOWA IM. JANA PAW?A II W LIPNICY WIELKIEJ","LIPNICA WIELKA","33-323","LIPNICA WIELKA","20.86532","49.70755","71.05333333333333","988.8233333333334","-1.2866666666666666","38.06","21.98","2023-04-05 00:00:00.0"
"SZKO?A PODSTAWOWA IM. PREZYDENTA GABRIELA NARUTOWICZA W CZ?STKOWIE MAZOWIECKIM","CZ?STK?W MAZOWIECKI","05-152","CZ?STK?W MAZOWIECKI","20.746943","52.39131","72.05666666666666","991.54","-1.3533333333333335","41.48666666666667","24.363333333333333","2023-04-05 00:00:00.0"
"SZKO?A PODSTAWOWA IM. PIERRE""A DE COUBERTINA W BUDACH SIENNICKICH","BUDY SIENNICKIE","05-190","BUDY SIENNICKIE","20.787657","52.544962","72.02666666666666","991.54","-1.24","42.843333333333334","24.320000000000004","2023-04-05 00:00:00.0"
"SZKO?A PODSTAWOWA IM. JANA BRZECHWY W SZKLARACH G?RNYCH","SZKLARY G?RNE","59-335","SZKLARY G?RNE","16.08945","51.44225","99.90000000000002","1008.6666666666666","0.4666666666666666","15.799999999999999","9.303333333333333","2023-04-05 00:00:00.0"
"SAMORZ?DOWA SZKO?A PODSTAWOWA W G?RNYCH GR?DACH","G?RNE GR?DY","62-310","G?RNE GR?DY","17.74012","52.11447","99.90000000000002","1015.5333333333333","3.733333333333333","27.233333333333334","15.13","2023-04-05 00:00:00.0"
"SZKO?A PODSTAWOWA NR 5 IM. WOJSKA POLSKIEGO W L?BORKU","KO?CIUSZKI","84-300","L?BORK","17.755123","54.5297","99.90000000000002","1021.5","0.06666666666666667","26.5","14.476666666666667","2023-04-05 00:00:00.0"
"SZKO?A PODSTAWOWA NR 7 IM. BOHATER?W WESTERPLATTE W L?BORKU","SKARGI","84-300","L?BORK","17.755129","54.5367","72.0","1022.9666666666667","1.2","48.833333333333336","28.173333333333336","2023-04-05 00:00:00.0"
"SZKO?A PODSTAWOWA IM. KRZYSZTOFA KAMILA BACZY?SKIEGO W CI??ENIU","WOLNO?CI","62-404","CI??E?","17.816093","52.21152","99.90000000000002","1012.8333333333334","3.0666666666666664","8.0","4.71","2023-04-05 00:00:00.0"
"SZKO?A PODSTAWOWA IM. WOJSKA POLSKIEGO W L?DKU","PYZDERSKA","62-406","L?DEK","17.924826","52.20916","99.90000000000002","1016.4","2.466666666666667","19.166666666666668","10.42","2023-04-05 00:00:00.0"
"SZKO?A PODSTAWOWA NR 1 IM. STRAJKU DZIECI KO?MI?SKICH 1906/1907 W KO?MINIE WIELKOPOLSKIM","GLINKI","63-720","KO?MIN WIELKOPOLSKI","17.45651","51.82566","57.166666666666664","1011.7666666666668","1.5999999999999999","49.5","28.25","2023-04-05 00:00:00.0"
"SZKO?A PODSTAWOWA SPORTOWA NR 6 W E?KU","SUWALSKA","19-300","E?K","22.365547","53.82862","99.90000000000002","1008.3566666666667","-0.27999999999999997","9.266666666666667","5.4433333333333325","2023-04-05 00:00:00.0"
"SZKO?A PODSTAWOWA NR 6 IM. JANA PAW?A II W STAROGARDZIE GDA?SKIM","BP. DOMINIKA","83-250","STAROGARD GDA?SKI","18.491356","53.98333","65.03333333333333","1013.8000000000001","-0.9666666666666668","12.033333333333333","7.32","2023-04-05 00:00:00.0"
"PUBLICZNA SZKOLA PODSTAWOWA IM. BOHATEROW O?WI?CIMSKICH W RUDZICZCE","WOSZCZYCKA","43-267","RUDZICZKA (SUSZEC)","18.7549","50.03935","77.21","993.3866666666667","-1.4533333333333331","38.24333333333333","22.42","2023-04-05 00:00:00.0"
"SZKO?A PODSTAWOWA NR 4 IM. JANUSZA KORCZAKA W CHOJNOWIE","JANA KILI?SKIEGO","59-225","CHOJN?W","15.9396","51.26856","99.90000000000002","1008.1","-0.9333333333333335","6.3999999999999995","3.5833333333333335","2023-04-05 00:00:00.0"
"ZESP?? SZK?? TECHNICZNYCH W KOLE","KOLEJOWA","62-600","KO?O","18.62956","52.2088","76.41000000000001","1008.1666666666666","2.183333333333333","16.343333333333334","9.933333333333332","2023-04-05 00:00:00.0"
"PUBLICZNA SZKO?A PODSTAWOWA NR 2 IM. KAZIMIERZA PU?ASKIEGO W WARCE","POLNA","05-660","WARKA","21.188357","51.78638","99.90000000000002","1009.7333333333332","1.0333333333333334","46.166666666666664","25.333333333333332","2023-04-05 00:00:00.0"
"SZKO?A PODSTAWOWA NR 2 IM. STEFANA STARZY?SKIEGO W NASIELSKU","KO?CIUSZKI","05-190","NASIELSK","20.801001","52.589717","72.22","991.7133333333335","-1.18","38.876666666666665","21.52333333333333","2023-04-05 00:00:00.0"
"ZESP?? SZKOLNO-PRZEDSZKOLNY W KAZUNIU NOWYM","G??WNA","05-152","KAZU? NOWY","20.68265","52.419853","75.26666666666667","1022.3666666666667","-0.6","28.0","16.623333333333335","2023-04-05 00:00:00.0"
"SZKO?A PODSTAWOWA IM. MIKO?AJA KOPERNIKA W CIEKSYNIE","MARSZ. J?ZEFA PI?SUDSKIEGO","05-192","CIEKSYN","20.666605","52.572132","99.90000000000002","1016.3333333333334","-0.6666666666666666","5.333333333333333","3.266666666666667","2023-04-05 00:00:00.0"
"SZKO?A PODSTAWOWA NR 5 IM MIKO?AJA KOPERNIKA W CZECHOWICACH-DZIEDZICACH","KLASZTORNA","43-502","CZECHOWICE-DZIEDZICE","19.003326","49.908154","68.63333333333333","996.1333333333333","0.26666666666666666","12.5","6.87","2023-04-05 00:00:00.0"
"SZKO?A PODSTAWOWA IM. KS. J?ZEFA LONDZINA W ZABRZEGU","KAROLA PYTLA","43-516","ZABRZEG","18.9401","49.91564","99.90000000000002","1001.1","-0.9666666666666668","41.06666666666667","23.133333333333336","2023-04-05 00:00:00.0"
"PRZEDSZKOLE NR 10 W PIASECZNIE","NADARZY?SKA","05-500","PIASECZNO","21.01768","52.07237","65.2","1010.7733333333333","-0.30333333333333334","35.76166666666666","32.63333333333333","2023-04-05 00:00:00.0"
"PRZEDSZKOLE NR 9 IM. JASIA I MA?GOSI W WO?OMINIE","MARSZA?KA J?ZEFA PI?SUDSKIEGO","05-200","WO?OMIN","21.23321","52.34716","97.4","930.0","-40.0","41.434999999999995","36.24333333333333","2023-04-05 00:00:00.0"
"PRZEDSZKOLE NR 1 IM. KRASNALA HA?ABA?Y W GRODZISKU MAZOWIECKIM","LECHA ZONDKA","05-825","GRODZISK MAZOWIECKI","20.62357","52.10765","74.05666666666666","1010.6566666666666","-0.10166666666666666","80.06166666666667","64.65333333333334","2023-04-05 00:00:00.0"
"SZKO?A PODSTAWOWA W DUCHNICACH","DUCHNICKA","05-850","DUCHNICE","20.78935","52.20064","67.57","1011.0133333333334","-0.46166666666666667","51.55","41.38166666666667","2023-04-05 00:00:00.0"
"SZKO?A PODSTAWOWA IM. OR?A BIA?EGO W KUROWICACH","SZKOLNA","95-006","KUROWICE","19.6897942","51.6648927","72.33333333333333","1000.8333333333334","-0.4333333333333333","41.0","25.330000000000002","2023-04-05 00:00:00.0"
"SZKO?A PODSTAWOWA IM. STEFANA ?EROMSKIEGO W BRYNICY","BRYNICA","26-065","PIEKOSZ?W","20.4987523601412","50.9051828086147","64.21666666666665","992.5","-3.591666666666667","34.916666666666664","24.083333333333332","2023-04-05 00:00:00.0"
"ZESP?? SZK?? W JANKOWIE PIERWSZYM","JANK?W PIERWSZY","62-814","JANK?W PIERWSZY","17.987951","51.902107","87.86666666666667","1007.6333333333333","2.733333333333333","2.1333333333333333","1.0566666666666666","2023-04-05 00:00:00.0"
"SZKO?A PODSTAWOWA IM. MIKO?AJA KOPERNIKA W NOWEJ WSI","UL. G??WNA","05-806","NOWA WIE?","20.80065871311049","52.134787344746286","70.26666666666667","1017.4","-1.6333333333333335","47.23333333333333","27.450000000000003","2023-04-05 00:00:00.0"
"SZKO?A PODSTAWOWA IM. MARII D?BROWSKIEJ W KOMOROWIE","UL. M. D?BROWSKIEJ","05-806","KOMOR?W","20.814969926602924","52.14696671968943","71.3","1016.0","-0.8333333333333334","52.333333333333336","31.15666666666667","2023-04-05 00:00:00.0"
"ZESP?? SZKOLNO-PRZEDSZKOLNY W SMO?DZINIE","BOHATER?W WARSZAWY","76-214","SMO?DZINO","17.217509899999996","54.66198055959346","82.69666666666667","1018.6666666666666","-0.9500000000000001","28.866666666666664","17.473333333333333","2023-04-05 00:00:00.0"
"ZESP?? SZKOLNO- PRZEDSZKOLNY W?DOBRZYKOWICACH","UL. SUKCESU","55-002","DOBRZYKOWICE","17.185415","51.092059","92.63333333333333","1001.1","-0.7333333333333334","46.699999999999996","28.486666666666668","2023-04-05 00:00:00.0"
"SZKO?A PODSTAWOWA IM. PIAST?W ?L?SKICH W CHRZ?STAWIE WIELKIEJ","UL. WROC?AWSKA","55-003","CZERNICA","17.292154","51.092542","99.83333333333333","1000.3666666666667","-1.0666666666666667","64.5","32.946666666666665","2023-04-05 00:00:00.0"
"ZESP?? SZKOLNO-PRZEDSZKOLNY IM. PAPIE?A JANA PAW?A II W CZERNICY","UL. ?W. BRATA ALBERTA ADAMA CHMIELOWSKIEGO?","55-003","CZERNICA","17.248533"," 51.0473805","88.42666666666666","1004.5733333333334","0.7399999999999999","48.99333333333334","28.266666666666666","2023-04-05 00:00:00.0"
"SZKO?A PODSTAWOWA IM. JANUSZA KORCZAKA W RATOWICACH","UL. WROC?AWSKA","55-003","CZERNICA","17.266850"," 51.033897","71.13333333333334","997.6666666666666","-0.3333333333333333","52.03333333333333","26.47","2023-04-05 00:00:00.0"
"SZKO?A PODSTAWOWA IM. BOLES?AW KRZYWOUSTEGO W KAMIE?CU WROC?AWSKIM","UL. KOLEJOWA","55-002","KAMIENIEC WROC?AWSKI","17.173628"," 51.077638","90.7","1002.0333333333333","-0.3","42.833333333333336","23.953333333333333","2023-04-05 00:00:00.0"
"SZKO?A PODSTAWOWA W KOSMOWIE","","62-834","KOSM?W-KOLONIA","18.2652533","51.8848855","77.61666666666666","1009.2083333333334","1.175","36.166666666666664","29.25","2023-04-05 00:00:00.0"
"ZESP?? SZK??-SZKO?A PODSTAWOWA W ZEMBRZYCACH","","34-210","ZEMBRZYCE","19.5620127","49.7784772","55.85833333333333","986.0749999999999","-0.15","24.349999999999998","20.591666666666665","2023-04-05 00:00:00.0"
"SZKO?A PODSTAWOWA IM.KAZIMIERZA WIELKIEGO W HUCIE STAREJ B","UL. ADAMA MICKIEWICZA","42-263","HUTA STARA B","19.138718","50.7370817","74.175","990.7333333333332","-3.2083333333333335","90.03333333333335","77.27499999999999","2023-04-05 00:00:00.0"
"III PRYWATNE LICEUM OG?LNOKSZTA?C?CE ""SZKO?Y OTWARTEGO MY?LENIA"" W SOSNOWCU","UL. RAC?AWICKA","41-200","SOSNOWIEC","19.1040791","50.2862638","65.67","994.1899999999999","-1.7399999999999998","66.91","54.589999999999996","2023-04-05 00:00:00.0"
"SZKO?A PODSTAWOWA IM.HENRYKA SIENKIEWICZA W KAMIENICY POLSKIEJ","UL. ADAMA FERENSA","42-260","KAMIENICA POLSKA","19.1305413","50.6705877","66.86363636363636","989.0272727272727","-2.2454545454545456","54.627272727272725","40.872727272727275","2023-04-05 00:00:00.0"
"SZKO?A PODSTAWOWA IM. ?W. STANIS?AWA KOSTKI W LGOCZANCE","","42-253","LGOCZANKA","19.538226","50.7040577","75.89999999999999","992.1666666666666","-3.2416666666666667","31.183333333333334","27.166666666666668","2023-04-05 00:00:00.0"
"SZKO?A PODSTAWOWA Z ODDZIA?AMI INTEGRACYJNYMI NR 5 IM. HENRYKA SIENKIEWICZA W MYSZKOWIE","UL. SIKORSKIEGO","42-300","MYSZK?W","19.3144637","50.5706845","99.84166666666665","987.9833333333332","-3.216666666666667","73.78333333333333","49.75","2023-04-05 00:00:00.0"
"ZESP?? SZK?? IM.T.KO?CIUSZKI TECHNIKUM W ?ARKACH","UL. MYSZKOWSKA","42-310","?ARKI","19.361968","50.6212895","78.49166666666666","984.6083333333335","-4.266666666666667","159.58333333333334","134.45000000000002","2023-04-05 00:00:00.0"
"SZKO?A PODSTAWOWA IM. JANA PAW?A II W PISANICY","","19-314","PISANICA","22.5789816","53.8232701","93.44","1006.93","-1.04","12.819999999999999","11.73","2023-04-05 00:00:00.0"
"SZKO?A PODSTAWOWA NR 3, IM. JANA PAW?A II W KASINCE MA?EJ","","34-734","KASINKA MA?A","20.0902484","49.7296904","41.9","968.2","3.1500000000000004","17.85","13.850000000000001","2023-04-05 00:00:00.0"
"SZKO?A PODSTAWOWA NR 6 IM. TADEUSZA KO?CIUSZKI W CIECHANOWIE","UL. WIKLINOWA","06-400","CIECHAN?W","20.60584577","52.87824598","77.85000000000001","1009.8249999999999","-1.1416666666666666","66.30833333333334","46.98333333333333","2023-04-05 00:00:00.0"
"SZKO?A PODSTAWOWA IM. ?W. FRANCISZKA Z ASY?U W JELNEJ","","37-310","JELNA","22.3518669","50.2962689","70.44","1000.97","0.39","13.52","12.290000000000001","2023-04-05 00:00:00.0"
"BRAN?OWA SZKO?A I STOPNIA NR 3 W TARNOWSKICH G?RACH","UL. HENRYKA SIENKIEWICZA","42-600","TARNOWSKIE G?RY","18.8608006","50.4472968","82.79166666666667","988.8499999999999","-1.25","193.95833333333334","161.04166666666666","2023-04-05 00:00:00.0"
"PUBLICZNA SZKO?A PODSTAWOWA W KRZESZOWIE G?RNYM","","37-413","KRZESZ?W G?RNY","22.384137","50.419185","79.0923076923077","998.0692307692308","-0.8999999999999999","11.63846153846154","10.838461538461539","2023-04-05 00:00:00.0"
"TECHNIKUM NR 5 W RYBNIKU","UL. J?ZEFA RYMERA","44-270","RYBNIK","18.4969188","50.0607178","72.99166666666666","994.85","-2.4250000000000003","180.775","141.875","2023-04-05 00:00:00.0"
"I LICEUM OG?LNOKSZTA?C?CE Z ODDZIA?AMI DWUJ?ZYCZNYMI IM. POWSTA?C?W ?L?SKICH W RYBNIKU","UL. TADEUSZA KO?CIUSZKI","44-200","RYBNIK","18.5519661","50.097143","63.05384615384616","994.7769230769231","-1.0230769230769232","65.78461538461539","53.25384615384615","2023-04-05 00:00:00.0"
"SZKO?A PODSTAWOWA Z ODDZIA?AMI MISTRZOSTWA SPORTOWEGO NR 9 IM. ADAMA MICKIEWICZA W RYBNIKU","UL. CMENTARNA","44-200","RYBNIK","18.541821","50.097862","71.15833333333333","998.0083333333333","-1.0333333333333334","122.39166666666667","99.98333333333333","2023-04-05 00:00:00.0"
"SZKO?A PODSTAWOWA Z ODDZIA?AMI INTEGRACYJNYMI NR 18 IM. JANA BRZECHWY W RYBNIKU","UL. J?ZEFA LOMPY","44-253","RYBNIK","18.6059321","50.0486975","63.35833333333333","992.25","-2.0833333333333335","64.85000000000001","52.31666666666666","2023-04-05 00:00:00.0"
"II LICEUM OG?LNOKSZTA?C?CE IM. STANIS?AWA WYSPIA?SKIEGO W B?DZINIE","UL. TEATRALNA","42-500","B?DZIN","19.1387173","50.3262993","65.1076923076923","991.4615384615385","-1.6846153846153844","68.3076923076923","49.91538461538461","2023-04-05 00:00:00.0"
"SZKO?A PODSTAWOWA NR 8 IM. KAWALER?W ORDERU U?MIECHU W ?WIDNICY","UL. WA?BRZYSKA","58-100","?WIDNICA","16.4766735","50.8345375","70.33333333333333","996.4250000000001","-1.3583333333333334","65.48333333333333","51.19166666666666","2023-04-05 00:00:00.0"
"TECHNIKUM NR 2 IM. STANIS?AWA LIGONIA W RUDZIE ?L?SKIEJ","UL. GLINIANA","41-711","RUDA ?L?SKA","18.857316","50.280234","64.73333333333333","987.4666666666667","-1.6666666666666667","48.574999999999996","32.425000000000004","2023-04-05 00:00:00.0"
"SZKO?A PODSTAWOWA NR 30 W ZABRZU","UL. LUDWIKI WAWRZY?SKIEJ","41-813","ZABRZE","18.8038211","50.3787192","77.375","989.475","-2.558333333333333","108.63333333333334","91.58333333333333","2023-04-05 00:00:00.0"
"SZKO?A PODSTAWOWA NR 28 IM. MI?O?NIK?W ROKITNICY W ZABRZU","UL. IRENY KOSMOWSKIEJ","41-813","ZABRZE","18.6721773","50.293402","62.99090909090909","991.1181818181819","-0.4818181818181818","86.60909090909091","82.25454545454545","2023-04-05 00:00:00.0"
"SZKO?A PODSTAWOWA W BORECZNIE","","14-230","BORECZNO","19.6819503","53.785392","76.925","1010.625","-1.7166666666666668","27.941666666666666","22.15833333333333","2023-04-05 00:00:00.0"
"SZKO?A PODSTAWOWA NR 3 IM. JANA KOCHANOWSKIEGO W TYCHACH","UL. WOJSKA POLSKIEGO","43-100","TYCHY","18.967428851534244","50.133349896354915 ","62.725","993.2666666666668","-0.8166666666666668","58.23333333333333","40.78333333333333","2023-04-05 00:00:00.0"
"SZKO?A PODSTAWOWAW IM. HENRYKA SIENKIEWICZA W KO?CIELCU","","59-223","KO?CIELEC","16.13685","51.14836","63.67","1005.79","0.27","20.759999999999998","17.34","2023-04-05 00:00:00.0"
"TECHNIKUM W ZESPOLE SZK?? IM. BOHATER?W WESTERPLATTE W JAB?ONCE","UL. PODHALA?SKA","34-480","JAB?ONKA","19.69526927","49.47987225","69.8","948.7583333333333","-3.2083333333333335","35.025","30.833333333333332","2023-04-05 00:00:00.0"
"SZKO?A PODSTAWOWA NR 26 W RYBNIKU","UL. GUSTAWA MORCINKA","44-273","RYBNIK","18.5462847","50.1021742","63.28333333333333","988.4","-1.9666666666666668","85.00833333333334","61.50833333333333","2023-04-05 00:00:00.0"
"SZKO?A PODSTAWOWA IM. JANA PAW?A II W WILCZKOWIE","UL. MIKO?AJA KOPERNIKA","55-020","WILCZK?W","16.9893963","50.9665118","81.02499999999999","1010.5416666666666","-1.4000000000000001","43.39166666666667","34.00833333333333","2023-04-05 00:00:00.0"
"SZKO?A PODSTAWOWA NR 1 IM. STANIS?AWY ?AKOMIK W CZELADZI","UL. W?ADYS?AWA REYMONTA","41-250","CZELAD?","19.073488","50.3091799","71.56153846153846","993.6615384615385","-2.3615384615384616","141.13076923076923","103.77692307692307","2023-04-05 00:00:00.0"
"SZKO?A PODSTAWOWA NR 5 W CZELADZI","UL. LWOWSKA","41-253","CZELAD?","19.092371","50.3074791","64.98333333333333","990.0666666666666","-2.308333333333333","109.08333333333333","95.95833333333333","2023-04-05 00:00:00.0"
"SZKO?A PODSTAWOWA NR 2 IM. JANA PAW?A II W ?WIERADOWIE-ZDROJU","UL. SANATORYJNA","59-850","?WIERAD?W-ZDR?J","15.3071925","50.9269757","77.30000000000001","967.3","-4.15","2.6","1.9","2023-04-05 00:00:00.0"
"TECHNIKUM NR 2 W ZESPOLE SZK?? BUDOWLANYCH IM. GENERA?A STANIS?AWA MACZKA W BIELSKU-BIA?EJ","UL. BUDOWLANYCH","43-300","BIELSKO-BIA?A","19.0578358","49.7952988","56.11","988.05","-0.8300000000000001","32.2","24.4","2023-04-05 00:00:00.0"
"SZKO?A PODSTAWOWA ZGROMADZENIA C?REK BO?EJ MI?O?CI IM. FRANCISZKI LECHNER W BIELSKU-BIA?EJ","UL. W?ADYS?AWA BRONIEWSKIEGO","43-300","BIELSKO-BIA?A","19.054075","49.819524","58.324999999999996","985.5583333333334","-1.0916666666666666","29.458333333333332","23.71666666666667","2023-04-05 00:00:00.0"
"SZKO?A PODSTAWOWA NR 6 SPECJALNA IM. PROF. MARII GRZEGORZEWSKIEJ W CZELADZI","UL. SZPITALNA","41-250","CZELAD?","19.0754521","50.3289091","70.00769230769231","991.2153846153846","-3.4923076923076923","66.49230769230769","49.73076923076923","2023-04-05 00:00:00.0"
"SAMORZ?DOWA SZKO?A PODSTAWOWA IM. STEFANA BATOREGO W LIWIE ","UL. KS. K. R. LESZCZY?SKIEGO","07-100","LIW","21.9631846","52.3725265","99.01666666666667","1008.6","-1.5333333333333332","6.575","5.333333333333333","2023-04-05 00:00:00.0"
"SZKO?A PODSTAWOWA NR 1 IM. MIKO?AJA KOPERNIKA W ROPCZYCACH","UL. WYSPIA?SKIEGO","39-100","ROPCZYCE","21.6153479","50.0517769","63.90833333333333","997.725","0.65","16.216666666666665","13.333333333333334","2023-04-05 00:00:00.0"
"SZKO?A PODSTAWOWA IM. HELENY MARUSARZ?WNY W Z?BIE","UL. ?W. ANNY","34-521","Z?B","19.9474975","49.3379768","82.625","974.9499999999999","-6.8999999999999995","18.541666666666668","16.466666666666665","2023-04-05 00:00:00.0"
"LICEUM OG?LNOKSZTA?AC?CE IM. PROF. ZBIGNIEWA RELIGI W GILOWICACH","UL. WOJCIECHA KORFANTEGO","43-227","GILOWICE","19.3085572","49.7122409","63.68333333333334","995.1166666666667","-1.6583333333333332","42.49166666666667","35.31666666666667","2023-04-05 00:00:00.0"
"SZKO?A PODSTAWOWA W CZERNICY","","58-521","CZERNICA","17.2449367","51.0457859","84.05","988.9833333333332","-4.308333333333333","9.1","7.416666666666667","2023-04-05 00:00:00.0"
"SZKO?A PODSTAWOWA NR 3 IM. JANA PAW?A II W SIEMIATYCZACH","UL. GEN. W?ADYS?AWA ANDERSA","17-300","SIEMIATYCZE","22.8845728","52.4289637","93.86666666666667","1002.9166666666666","-1.25","20.724999999999998","18.166666666666668","2023-04-05 00:00:00.0"
"SZKO?A PODSTAWOWA IM.KARDYNA?A STEFANA WYSZY?SKIEGO W SIEDLISKACH","","33-172","SIEDLISKA","21.0117541","49.8686222","64.80714285714285","993.8357142857142","0.20714285714285713","2.3857142857142857","1.5214285714285716","2023-04-05 00:00:00.0"
"NIEPUBLICZNE LICEUM SZTUK PLASTYCZNYCH IM. ORL?T LWOWSKICH W TYCHACH","UL. BUDOWLANYCH","43-100","TYCHY","19.0200022","50.1218007","59.60833333333333","993.6666666666666","-0.01666666666666667","26.933333333333334","19.191666666666666","2023-04-05 00:00:00.0"
"LICEUM OG?LNOKSZTA?C?CE IM. HENRYKA SIENKIEWICZA W BOBOWEJ","UL. D?UGOSZOWSKICH","38-350","BOBOWA","20.9509659","49.7102798","66.75","988.4499999999999","0.09166666666666667","12.733333333333334","9.450000000000001","2023-04-05 00:00:00.0"
"SZKO?A PODSTAWOWA NR 1 IM. JANA III SOBIESKIEGO W LIBI??U","UL. SZKOLNA","32-590","LIBI??","19.3286373","50.1013661","63.958333333333336","989.375","-1.9500000000000002","110.14166666666667","87.46666666666668","2023-04-05 00:00:00.0"
"SZKO?A PODSTAWOWA IM. TADEUSZA KO?CIUSZKI W WILKOWIECKU","UL. SZKOLNA","42-152","WILKOWIECKO","18.8698338","50.9513279","70.95833333333333","994.0666666666666","-2.35","31.183333333333334","25.058333333333334","2023-04-05 00:00:00.0"
"SZKO?A PODSTAWOWA W WINOWNIE","UL. SZKOLNA","42-350","WINOWNO","19.2179609","50.575152","84.20769230769231","983.6307692307693","-5.476923076923077","84.15384615384616","70.13076923076923","2023-04-05 00:00:00.0"
"SZKO?A PODSTAWOWA W BACZYNIE","","34-211","BACZYN","19.7182581","49.7900852","65.75833333333334","976.5083333333333","-0.5666666666666667","43.76666666666667","34.625","2023-04-05 00:00:00.0"
"PUBLICZNA SZKO?A PODSTAWOWA IM. HELENY I J?ZEFA ?WI?TY?SKICH W OSSALI","","28-221","OSSALA","21.3789417","50.4840431","66.06153846153846","1002.4692307692308","-0.4461538461538461","31.43846153846154","26.99230769230769","2023-04-05 00:00:00.0"
"TECHNIKUM NR 2 W ZESPOLE SZK?? NR 2 IM.?W.JADWIGI KR?LOWEJ W ANDRYCHOWIE ","UL. STEFANA BATOREGO","34-120","ANDRYCH?W","19.3412842","49.8548934","59.64166666666667","985.0083333333333","-0.9583333333333334","14.683333333333332","11.75","2023-04-05 00:00:00.0"
"SZKO?A PODSTAWOWA IM. ZBIGNIEWA WODECKIEGO W PIORUNCE","","33-380","PIORUNKA","20.9906818","49.4898945","79.46153846153847","955.876923076923","-2.5307692307692307","13.13076923076923","11.384615384615385","2023-04-05 00:00:00.0"
"SZKO?A PODSTAWOWA NR 7 IM. KS. STANIS?AWA STASZICA W JAROS?AWIU","UL. DOLNOLE?AJSKA","37-500","JAROS?AW","22.680698","50.044337","74.28333333333333","1001.2666666666665","0.7666666666666666","22.058333333333334","17.375","2023-04-05 00:00:00.0"
"SZKO?A PODSTAWOWA W U?CIU GORLICKIM","","38-315","U?CIE GORLICKIE","21.1384131","49.5218473","71.45","973.0583333333334","-0.5583333333333333","14.825000000000001","13.708333333333334","2023-04-05 00:00:00.0"
"SZKO?A PODSTAWOWA IM.MARSZA?KA J?ZEFA PI?SUDSKIEGO W G?SKACH","","19-400","G?SKI","15.921626","54.236797","93.30833333333334","1003.725","-1.6166666666666665","7.574999999999999","6.816666666666666","2023-04-05 00:00:00.0"
"II LICEUM OG?LNOKSZTA?C?CE Z DODATKOW? NAUK? J?ZYKA BIA?ORUSKIEGO W HAJN?WCE","UL. MARSZA?KA J?ZEFA PI?SUDSKIEGO","17-200","HAJN?WKA","23.592226","52.735871","92.29166666666667","1001.7083333333334","-1.5583333333333333","41.94166666666667","28.866666666666664","2023-04-05 00:00:00.0"
"TECHNIKUM W K?TACH ZAK?ADU DOSKONALENIA ZAWODOWEGO W KATOWICACH","UL. ?WIRKI I WIGURY","32-650","K?TY","19.2228003","49.8807299","60.4","990.6833333333334","-1.1583333333333334","43.083333333333336","33.199999999999996","2023-04-05 00:00:00.0"
"SPO?ECZNA SZKO?A PODSTAWOWA Z ODDZIA?AMI DWUJ?ZYCZNYMI IM. JERZEGO KUKUCZKI W RYBNIKU","UL. ?W. J?ZEFA","44-217","RYBNIK","18.531808211060092","50.10136552503232 ","76.76666666666667","997.4583333333334","-2.8333333333333335","71.19166666666666","64.63333333333334","2023-04-05 00:00:00.0"
"SZKO?A PODSTAWOWA Z ODDZIA?AMI INTEGRACYJNYMI NR 20 IM. HARCERZY BUCHALIK?W W RYBNIKU","UL. ZIO?OWA","44-251","RYBNIK","18.61219957","50.0787546","73.50833333333334","995.3333333333334","-3.3833333333333333","60.475","51.60833333333333","2023-04-05 00:00:00.0"
"SZKO?A PODSTAWOWA NR 8 IM. W?ADYS?AWA WEBERA W ZESPOLE SZKOLNO-PRZEDSZKOLNYM Z ODDZIA?AMI INTEGRACYJNYMI NR 1 W RYBNIKU","UL. GLIWICKA","44-207","RYBNIK","18.5462847","50.1021742","58.61538461538461","995.2615384615384","0.07692307692307693","96.95384615384616","73.56923076923077","2023-04-05 00:00:00.0"
"SZKO?A PODSTAWOWA NR 32 IM. ALFREDA SZKLARSKIEGO W RYBNIKU","UL. BORKI","44-200","RYBNIK","18.5162417","50.1108233","69.04166666666667","995.8000000000001","-2.5416666666666665","36.733333333333334","29.191666666666666","2023-04-05 00:00:00.0"
"TECHNIKUM NR 2 W RYBNIKU","UL. TADEUSZA KO?CIUSZKI","44-200","RYBNIK","18.5490429","50.0946384","64.00833333333334","994.4499999999999","-1.4833333333333334","72.53333333333333","56.85","2023-04-05 00:00:00.0"
"SZKO?A PODSTAWOWA IM. ZOFII KOSSAK W PIER??CU","UL. JERZEGO TOMANKA","43-430","PIER?CIEC","18.8202885","49.8369","68.21538461538461","990.0230769230768","-1.7615384615384615","56.7","37.98461538461539","2023-04-05 00:00:00.0"
"SZKO?A PODSTAWOWA IM. KORNELA MAKUSZY?SKIEGO W ZESPOLE SZKOLNO - PRZEDSZKOLNYM W ?OJKACH","UL. D?UGA","42-290","?OJKI","19.005388","50.7962799","84.97500000000001","993.1333333333333","-3.608333333333334","68.075","51.76666666666667","2023-04-05 00:00:00.0"
"SZKO?A PODSTAWOWA Z ODDZIA?AMI INTEGRACYJNYMI NR 1 IM. JANUSZA KORCZAKA W RYBNIKU","UL. BOLES?AWA CHROBREGO","44-200","RYBNIK","18.5462847","50.1021742","61.13333333333333","994.1166666666667","-0.85","54.65833333333333","41.516666666666666","2023-04-05 00:00:00.0"
"SZKO?A PODSTAWOWA IM. JANA PAW?A II W PSARACH","UL. G??WNA","42-287","PSARY","19.1137897","50.3794553","95.20833333333333","986.4250000000001","-4.5","102.175","80.28333333333333","2023-04-05 00:00:00.0"
"LICEUM OG?LNOKSZTA?C?CE IM. GEN. W?ADYS?AWA ANDERSA W ?AGANIU","UL. GIMNAZJALNA","68-100","?AGA?","15.3248642","51.6151339","67.56666666666666","1013.3666666666667","1.575","36.9","31.166666666666668","2023-04-05 00:00:00.0"
"LICEUM OG?LNOKSZTA?C?CE Z ODDZIA?AMI DWUJ?ZYCZNYMI W SZPROTAWIE","UL. NIEPODLEG?O?CI","67-300","SZPROTAWA","15.5298967","51.5647296","71.125","1010.525","0.7083333333333334","50.791666666666664","35.34166666666667","2023-04-05 00:00:00.0"
"TECHNIKUM NR 1 IM. STANIS?AWA STASZICA W RYBNIKU","UL. TADEUSZA KO?CIUSZKI","44-200","RYBNIK","18.5456179","50.0967328","64.59166666666667","994.1916666666666","-1.7750000000000001","87.41666666666667","75.65833333333333","2023-04-05 00:00:00.0"
"SZKO?A PODSTAWOWA NR 6 IM. JANUSZA KORCZAKA W ZAWIERCIU","UL. WIERZBOWA","42-400","ZAWIERCIE","19.4166259","50.487743","76.96666666666667","984.8666666666667","-2.9250000000000003","155.45833333333334","131.05833333333334","2023-04-05 00:00:00.0"
"SZKO?A PODSTAWOWA IM. JANA PAW?A II W ?OSOSINIE DOLNEJ","","33-314","?OSOSINA DOLNA","20.6247311","49.7405248","62.09166666666667","992.3916666666665","0.27499999999999997","16.041666666666668","15.241666666666667","2023-04-05 00:00:00.0"
"SZKO?A PODSTAWOWA SPECJALNA W DOBRODZIENIU","UL. PIASTOWSKA","46-380","DOBRODZIE?","18.44702463","50.72184475","78.9","996.4555555555556","-2.588888888888889","70.86666666666666","63.5","2023-04-05 00:00:00.0"
"SZKO?A PODSTAWOWA IM. JANA PAW?A II W JONINACH","","33-160","JONINY","21.1750307","49.8859362","66.52307692307691","991.123076923077","-0.34615384615384615","13.692307692307692","12.415384615384616","2023-04-05 00:00:00.0"
"SZKO?A PODSTAWOWA IM.BOHATER?W WRZE?NIA 1939R.W JORDANOWIE","UL. KOLEJOWA","34-240","JORDAN?W","19.829654","49.6477513","62.73","964.71","-2.2","24.56","22.4","2023-04-05 00:00:00.0"
"ZESP?? SZK?? SAMORZ?DOWYCH W HOCZWI SZKO?A PODSTAWOWA W HOCZWI","","38-604","HOCZEW","22.3277466","49.4275648","61.666666666666664","980.8916666666665","0.34166666666666673","11.166666666666666","10.991666666666667","2023-04-05 00:00:00.0"
"EUROPEJSKIE LICEUM S?U?B MUNDUROWYCH WE WROC?AWIU","UL. KRUSZWICKA","53-652","WROC?AW-STARE MIASTO","17.1143224","51.1207065","56.65833333333333","1011.9833333333332","2.0083333333333333","30.933333333333334","21.483333333333334","2023-04-05 00:00:00.0"
"SZKO?A PODSTAWOWA W NIEBIESZCZANACH","","38-504","NIEBIESZCZANY","22.1593098","49.5008701","71.80833333333334","978.125","-0.18333333333333335","37.0","28.016666666666666","2023-04-05 00:00:00.0"
"SZKO?A PODSTAWOWA IM. ?WI?TEGO ANDRZEJA BOBOLI W KOSTAROWCACH","","38-507","KOSTAROWCE","22.1133372","49.5876781","71.21666666666667","986.4666666666667","0.05000000000000001","18.900000000000002","15.383333333333333","2023-04-05 00:00:00.0"
"SZKO?A PODSTAWOWA IM. JAROS?AWA D?BROWSKIEGO W KO?CZYCACH MA?YCH","UL. JAGIELLO?SKA","43-410","KO?CZYCE MA?E","18.6292714","49.8522537","69.95","995.1999999999999","-1.9083333333333332","52.333333333333336","43.458333333333336","2023-04-05 00:00:00.0"
"BRAN?OWA SZKO?A I STOPNIA SPECJALNA W RYBNIKU","UL. STANIS?AWA MA?ACHOWSKIEGO","44-251","RYBNIK","18.5866335","50.052555","75.58333333333333","990.9333333333334","-2.158333333333333","40.275","33.675000000000004","2023-04-05 00:00:00.0"
"TECHNIKUM LE?NE W MILICZU","UL. KASZTELA?SKA","56-300","MILICZ","17.2664553","51.5302895","63.75","1013.4333333333334","1.616666666666667","14.6","11.016666666666666","2023-04-05 00:00:00.0"
"SZKO?A PODSTAWOWA NR 4 IM. JANA MEJSTERA W S?OMCZYNIE","WILANOWSKA","05-520","KONSTANCIN-JEZIORNA","21.15329336951058","52.060898677662806","94.10000000000001","1014.4","-0.06666666666666668","22.7","13.85","2023-04-05 00:00:00.0"
"SZKO?A PODSTAWOWA EKOLA WROC?AW","UL. ZIELI?SKIEGO","53-534","WROC?AW","17.020853111206343","51.09782924529429","60.800000000000004","1010.6583333333333","0.8250000000000001","24.95","17.558333333333334","2023-04-05 00:00:00.0"
"SZKO?A PODSTAWOWA NR 2 IM. CHWA?Y OR??A POLSKIEGO W GI?YCKU","UL. WARSZAWSKA","11-500","GI?YCKO","21.78075224019078","54.036565898932686","87.71166666666666","1006.8883333333332","-1.175","8.965","6.495","2023-04-05 00:00:00.0"
"ZESP?? SZKOLNO-PRZEDSZKOLNY NR 3 W LEGIONOWIE","UL. KR?LOWEJ JADWIGI","05-120","LEGIONOWO","20.9263350977793","52.39442875443961","67.78166666666667","1013.0133333333334","2.253333333333333","23.296666666666667","15.835","2023-04-05 00:00:00.0"
"PUBLICZNA SZKO?A PODSTAWOWA W TOMASZOWIE","LE?NA","68-114","TOMASZ?W","15.404658513741197","51.622513710796575","99.7","1004.9666666666667","2.466666666666667","8.4","4.546666666666667","2023-04-05 00:00:00.0"
"SZKO?A PODSTAWOWA IM. JANA PAW?A II W MICHA?OWICACH","UL. SZKOLNA","05-816","MICHA?OWICE","20.8894743996203","52.16806240949327","69.60000000000001","1015.0333333333333","-0.8666666666666667","46.1","25.959999999999997","2023-04-05 00:00:00.0"
"GMINNE PRZEDSZKOLE W MICHA?OWICACH","UL. SZKOLNA","05-816","MICHA?OWICE","20.8908240883606","52.16924425690457","68.13333333333334","1014.9666666666667","-0.7999999999999999","44.6","26.123333333333335","2023-04-05 00:00:00.0"
"GMINNE PRZEDSZKOLE W NOWEJ WSI","UL. G??WNA","05-806","NOWA WIE?","20.793608032839607","52.14079879793492","74.2","1017.4666666666667","-2.433333333333333","49.833333333333336","29.973333333333333","2023-04-05 00:00:00.0"
"SZKO?A PODSTAWOWA W SZKODNEJ","","39-126","SZKODNA","21.6475593266686","49.9841839576423","70.2","986.6","-0.3","12.5","11.133333333333333","2023-04-05 00:00:00.0"
"SZKO?A PODSTAWOWA NR 34 IM. KORNELA MAKUSZY?SKIEGO W LUBLINIE","IRENY KOSMOWSKIEJ","20-815","LUBLIN","22.5413696849013","51.2606404685152","71.61666666666666","997.0","-1.9083333333333332","13.5","10.166666666666666","2023-04-05 00:00:00.0"
"SZKO?A PODSTAWOWA IM. JANA PAW?A II W ADAM?WCE","ADAM?WKA","37-534","ADAM?WKA","22.69604291689","50.2583834457348","67.20833333333333","997.0","-0.2916666666666667","13.083333333333334","10.75","2023-04-05 00:00:00.0"
"SZKO?A PODSTAWOWA NR 1 IM. MARSZA?KA J?ZEFA PI?SUDSKIEGO W S?DZISZOWIE MA?OPOLSKIM","SZKOLNA","39-120","S?DZISZ?W MA?OPOLSKI","21.6763139406847","50.0193666321217","51.99166666666667","997.0","0.875","13.0","9.5","2023-04-05 00:00:00.0"
"SZKO?A PODSTAWOWA IM. KS. W?ADYS?AWA ?WIDRA W CZARNEJ S?DZISZOWSKIEJ","CZARNA SEDZISZOWSKA","39-123","CZARNA S?DZISZOWSKA","21.754106016886215","50.1227781306038","91.40000000000002","1006.0","1.1","15.0","11.0","2023-04-05 00:00:00.0"
"SZKO?A PODSTAWOWA W KRZYWEJ","S?DZISZ?W MA?OPOLSKI, KRZYWA","39-120","KRZYWA","21.7418727285244","50.0936803038129","64.26666666666667","994.0","-0.25833333333333336","14.083333333333334","9.333333333333334","2023-04-05 00:00:00.0"
"SZKO?A PODSTAWOWA IM. MARII KONOPNICKIEJ W BUDACH G?OGOWSKICH","BUDY G?OGOWSKIE","36-060","BUDY G?OGOWSKIE","21.9052064322315","50.1600258408686","61.86666666666667","993.0","0.05000000000000001","3.1666666666666665","3.1666666666666665","2023-04-05 00:00:00.0"
"SZKO?A PODSTAWOWA NR 2 W G?OGOWIE MA?OPOLSKIM","STYKOWSKA","36-060","G?OG?W MA?OPOLSKI","21.9472126342546","50.1889802200226","71.6","978.0","7.3","18.0","12.0","2023-04-05 00:00:00.0"
"SZKO?A PODSTAWOWA IM. KSI?DZA KARDYNA?A STEFANA WYSZY?SKIEGO W G?OGOWIE MA?OPOLSKIM","KARDYNA?A STEFANA WYSZY?SKIEGO","36-060","G?OG?W MA?OPOLSKI","21.9586176292902","50.1529459443629","28.2","991.0","24.2","4.0","3.0","2023-04-05 00:00:00.0"
"SZKO?A PODSTAWOWA W KL?CZANACH","B?DZIEMY?L, KLECZANY","39-127","KL?CZANY","21.7805870168847","50.0725485846066","58.275","994.25","0.48333333333333334","15.916666666666666","12.166666666666666","2023-04-05 00:00:00.0"
"SZKO?A PODSTAWOWA NR 25 IM. PRYMASA TYSI?CLECIA W RZESZOWIE","STARZY?SKIEGO","35-508","RZESZ?W","21.9830913377866","50.0603946195528","65.73333333333333","995.0","-0.4916666666666667","15.416666666666666","11.25","2023-04-05 00:00:00.0"
"PUBLICZNA SZKO?A PODSTAWOWA W BACH?RCU","BACH?RZEC","37-750","BACH?RZEC","22.334908846237","49.82477572297","69.35833333333333","991.0","-0.17500000000000002","11.833333333333334","10.083333333333334","2023-04-05 00:00:00.0"
"SZKO?A PODSTAWOWA STOWARZYSZENIA ABSOLWENT?W I LO W PRZEMY?LU","UL. DWORSKIEGO","37-700","PRZEMY?L","22.7790441750718","49.7813808269014","51.85833333333334","997.0","2.066666666666667","17.5","13.833333333333334","2023-04-05 00:00:00.0"
"SZKO?A PODSTAWOWA NR 15 W RZESZOWIE","BUDZIWOJSKA","35-317","RZESZ?W","21.9879100039133","49.9694741013062","60.574999999999996","995.0","1.3833333333333335","8.583333333333334","5.916666666666667","2023-04-05 00:00:00.0"
"SZKO?A PODSTAWOWA IM. JANA PAW?A II W STRASZYDLU","STRASZYDLE","36-043","STRASZYDLE","21.9835224420105","49.8988952858278","55.06666666666666","990.0","0.9833333333333334","16.166666666666668","12.416666666666666","2023-04-05 00:00:00.0"
"SZKO?A PODSTAWOWA IM. GEN. W?. SIKORSKIEGO W HY?NEM","HY?NE","36-024","HY?NE","22.1602553978308","49.9243953731159","77.1","989.0","8.9","46.0","30.0","2023-04-05 00:00:00.0"
"SZKO?A PODSTAWOWA FUNDACJI ""ELEMENTARZ"" Z ODDZIA?EM PRZEDSZKOLNYM IM. ?W. STANIS?AWA KOSTKI W GOLCACH","GOLCE","37-405","JAROCIN","22.3837533904382","50.5420855272937","72.44166666666668","998.0","-2.266666666666667","11.666666666666666","9.416666666666666","2023-04-05 00:00:00.0"
"ZESP?? SZKOLNO-PRZEDSZKOLNY IM. B?. O. MICHA?A CZARTORYSKIEGO W PE?KINIACH","PE?KINIE","37-511","PE?KINIE","22.6256056782619","50.0630311259663","62.09166666666667","998.0","0.1416666666666667","18.416666666666668","13.333333333333334","2023-04-05 00:00:00.0"
"SZKO?A PODSTAWOWA IM. MARII KONOPNICKIEJ W KIE?KOWIE","KIE?K?W","39-320","PRZEC?AW","21.4761219652984","50.2329054713735","84.0","996.0","18.8","15.75","12.75","2023-04-05 00:00:00.0"
"ZESP?? SZKOLNO-PRZEDSZKOLNY W MAKOWISKU","MAKOWISKO","37-500","JAROS?AW","22.8151539480959","50.0463627532838","61.15","998.0","0.15833333333333335","16.083333333333332","12.333333333333334","2023-04-05 00:00:00.0"
"SZKO?A PODSTAWOWA W TARGOWISKACH IM. ?W. JANA KANTEGO","KS. SUCHODOLSKIEGO","38-423","TARGOWISKA","21.8158967880361","49.6346167630576","54.25416666666666","989.5","0.6","15.958333333333334","12.416666666666666","2023-04-05 00:00:00.0"
"SZKO?A PODSTAWOWA NR 11 IM. HENRYKA JORDANA W PRZEMY?LU","UL. W?ADYCZE 5","37-700","PRZEMY?L","22.7749834457124","49.7816482216614","53.025","996.0","0.9833333333333334","18.416666666666668","13.166666666666666","2023-04-05 00:00:00.0"
"PUBLICZNA SZKO?A PODSTAWOWA IM. JANA PAW?A II W ROSZOWICKIM LESIE","UL. SZKOLNA","47-253","ROSZOWICKI LAS","18.21990066","50.26168468","76.45","1004.025","-2.3249999999999997","109.63333333333333","97.95833333333333","2023-04-05 00:00:00.0"
"SZKO?A PODSTAWOWA NR 41 IM. W?ADYS?AWA BRONIEWSKIEGO W GLIWICACH","UL. KORMORAN?W","44-100","GLIWICE","18.6561","50.274791","71.65833333333333","994.9250000000001","-1.925","45.00833333333333","35.19166666666667","2023-04-05 00:00:00.0"
"SZKO?A PODSTAWOWA NR 7 IM. ADAMA MICKIEWICZA W GLIWICACH","UL. TARNOG?RSKA","44-100","GLIWICE","18.684621","50.306626","67.2","995.0","-1.7","64.44166666666666","50.333333333333336","2023-04-05 00:00:00.0"
"MIEJSKA SZKO?A PODSTAWOWA Z ODDZIA?AMI INTEGRACYJNYMI NR 2 IM. KAROLA MIARKI W KNUROWIE","UL. WILSONA","44-190","KNUR?W","18.664685","50.223275","78.47500000000001","996.6416666666668","-2.6166666666666667","142.88333333333333","105.35833333333333","2023-04-05 00:00:00.0"
"SZKO?A PODSTAWOWA IM. MARGARETHY KAMPRAD W JAROSTACH","UL. LE?NA","97-310","JAROSTY","19.68775849","51.45636536","80.93333333333334","1001.0583333333334","-2.4250000000000003","35.016666666666666","25.933333333333334","2023-04-05 00:00:00.0"
"SZKO?A PODSTAWOWA IM. DR HENRYKA JORDANA W KSAWEROWIE","UL. ZACHODNIA","95-054","KSAWER?W","19.39486431","51.68227822","88.70833333333333","1000.5416666666666","-0.9249999999999999","38.208333333333336","31.616666666666664","2023-04-05 00:00:00.0"
"SZKO?A PODSTAWOWA NR 157 IM. IGNACEGO JANA PADEREWSKIEGO W KRAKOWIE","UL. LUDWIKA RYDYGIERA","30-695","KRAK?W-PODG?RZE","20.00607","50.006338","44.11666666666667","995.3333333333334","3.1","13.4","12.208333333333334","2023-04-05 00:00:00.0"
"SZKO?A PODSTAWOWA NR 60 IM. STANIS?AWA WYSPIA?SKIEGO W KRAKOWIE","UL. KAZIMIERZA ODNOWICIELA","31-481","KRAK?W-?R?DMIE?CIE","19.970521","50.088055","57.275","998.3833333333333","0.025000000000000005","16.933333333333334","13.866666666666667","2023-04-05 00:00:00.0"
"BRAN?OWA SZKO?A I STOPNIA NR 1 W OPOCZNIE","UL. WOJCIECHA KOSSAKA","26-300","OPOCZNO","20.27237638","51.37764127","72.06666666666666","1000.2666666666668","-2.0749999999999997","77.0","63.75833333333333","2023-04-05 00:00:00.0"
"SZKO?A PODSTAWOWA IM. KS. KARD. STEFANA WYSZY?SKIEGO W BORZYMINIE","","87-500","BORZYMIN","19.3345342","53.0561291","69.05","1008.1166666666667","-1.1333333333333335","36.65","30.108333333333334","2023-04-05 00:00:00.0"
"LICEUM OG?LNOKSZTA?C?CE SPECJALNE NR XXXII DLA UCZNI?W NIEWIDOMYCH I S?ABOWIDZ?CYCH W DOLNO?L?SKIM SPECJLANYM O?RODKU SZKOLNO-WYCHOWAWCZYM NR 13 DLA NIEWIDOMYCH I S?ABOWIDZ?CYCH WE WROC?AWIU","UL. KAMIENNOG?RSKA","54-034","WROC?AW-FABRYCZNA","16.89878269","51.13928491","99.83333333333333","1011.3666666666667","0.7999999999999999","56.15","46.76666666666667","2023-04-05 00:00:00.0"
"SZKO?A PODSTAWOWA IM. WANDY KAWY I BRONIS?AWY KAWY W KO?MIDRACH","UL. SZKOLNA","42-772","KO?MIDRY","18.5679671","50.6647589","85.33333333333333","997.0416666666666","-3.4250000000000003","25.075","21.233333333333334","2023-04-05 00:00:00.0"
"SZKO?A PODSTAWOWA NR 4 IM 21. WARSZAWSKIEGO PU?KU PIECHOTY ""DZIECI WARSZAWY"" W CIECHANOWIE","UL. P?O?SKA","06-400","CIECHAN?W","20.630814","52.8633337","75.20833333333333","1010.0333333333333","0.6916666666666668","48.18333333333334","35.00833333333333","2023-04-05 00:00:00.0"
"TECHNIKUM NR 1 IM. PROF. BOLES?AWA KRUPI?SKIEGO W LUBINIE","UL. TADEUSZA KO?CIUSZKI","59-300","LUBIN","16.208145","51.4014027","79.86666666666666","1010.85","-1.4000000000000001","34.775","26.433333333333334","2023-04-05 00:00:00.0"
"SZKO?A PODSTAWOWA NR 1 IM. MIKO?AJA KOPERNIKA W GUBINIE","UL. RAC?AWICKA","66-620","GUBIN","14.7284576","51.9489824","68.125","1020.1416666666668","2.4333333333333336","44.76666666666667","30.325","2023-04-05 00:00:00.0"
"IV LICEUM OG?LNOKSZTA?C?CE IM. KARD. STEFANA WYSZY?SKIEGO W ZESPOLE SZK?? NR 1 IM. J?ZEFA PI?SUDSKIEGO W LIMANOWEJ ","UL. WINCENTEGO WITOSA","34-600","LIMANOWA","20.4080007","49.7185471","68.5","977.7999999999998","-1.8166666666666667","24.483333333333334","18.533333333333335","2023-04-05 00:00:00.0"
"MIEJSKA SZKO?A PODSTAWOWA NR 3 W KNUROWIE","UL. FELIKSA MICHALSKIEGO","44-193","KNUR?W","18.6452996","50.2109434","77.10833333333333","996.9083333333333","-3.9916666666666667","100.95","83.83333333333333","2023-04-05 00:00:00.0"
"PUBLICZNA SZKO?A PODSTAWOWA IM. BOHATERSKICH HARCERZY CEG?OWA W CEG?OWIE","UL. POPRZECZNA","05-319","CEG??W","21.7379077","52.1469857","87.48333333333333","1002.4416666666666","-1.3416666666666668","17.375","15.508333333333333","2023-04-05 00:00:00.0"
"TECHNIKUM NR 3 W SUWA?KACH","UL. SEJNE?SKA","16-400","SUWA?KI","22.94463","54.10127","98.72500000000001","1002.0083333333333","-0.19999999999999998","11.450000000000001","9.6","2023-04-05 00:00:00.0"
"SZKO?A PODSTAWOWA W JUDZIKACH","","19-400","JUDZIKI","22.5106122","54.1146732","97.14166666666667","998.3416666666667","-1.6083333333333334","11.333333333333334","9.866666666666667","2023-04-05 00:00:00.0"
"SZKO?A PODSTAWOWA IM. KONSTYTUCJI 3 MAJA W JA?WI?ACH","","19-124","JA?WI?Y","22.9430109","53.477615","100.0","1001.6916666666667","-1.1","4.533333333333333","4.016666666666667","2023-04-05 00:00:00.0"
"SZKO?A PODSTAWOWA Z ODDZIA?AMI INTEGRACYJNYMI W SZCZYTNIKACH","","32-112","SZCZYTNIKI","20.2865705","50.2369307","65.74166666666666","991.7166666666667","-0.9166666666666666","27.78333333333333","25.925","2023-04-05 00:00:00.0"
"PUBLICZNA SZKO?A PODSTAWOWA W KOCHCICACH","UL. PARKOWA","42-283","KOCHCICE","18.6821575","50.7082443","86.50833333333333","992.7916666666666","-3.3249999999999997","95.89166666666667","81.21666666666667","2023-04-05 00:00:00.0"
"SZKO?A PODSTAWOWA IM.JANA KOCHANOWSKIEGO W SZ?WSKU","UL. LUBELSKA","37-522","SZ?WSKO","22.710251184075926","50.04758822852888 ","72.23076923076923","1002.376923076923","0.7692307692307693","33.76923076923077","28.93846153846154","2023-04-05 00:00:00.0"
"I LICEUM OG?LNOKSZTA?C?CE IM. MIKO?AJA KOPERNIKA W GRAJEWIE","UL. A. MICKIEWICZA","19-200","GRAJEWO","22.452724999999997","53.65094443707044","97.64999999999999","1007.2999999999998","-0.5499999999999999","8.141666666666667","6.466666666666666","2023-04-05 00:00:00.0"
"ZESP?? SZK?? SPECJALNYCH SZKO?A PODSTAWOWA SPECJALNA NR 6 W WADOWICACH","UL. ZEGAD?OWICZA","34-100","WADOWICE","19.4939579","49.8827856","57.88333333333333","992.1500000000001","0.5166666666666666","29.491666666666664","23.28333333333333","2023-04-05 00:00:00.0"
"SZKO?A PODSTAWOWA Z ODDZIA?EM PRZEDSZKOLNYM W POSKWITOWIE","POSKWIT?W","32-095","POSKWIT?W (WIE?)","20.0004568","50.2236024","72.38333333333334","990.3416666666667","-1.2583333333333333","24.316666666666666","17.7","2023-04-05 00:00:00.0"
"SZKO?A PODSTAWOWA IM. B.CHROBREGO W RYBARZOWICACH","UL. BESKIDZKA","43-378","RYBARZOWICE","19.1030526","49.7294784","61.291666666666664","974.4499999999999","-2.0","30.25","23.05","2023-04-05 00:00:00.0"
"AKADEMICKI ZESP?? PLAC?WEK O?WIATOWYCH SZKO?A PODSTAWOWA W FIJEWIE","","14-260","FIJEWO","19.7542438","53.4991344","86.96666666666665","1003.6166666666667","-0.47500000000000003","35.641666666666666","28.34166666666667","2023-04-05 00:00:00.0"
"SZKO?A PODSTAWOWA IM. LOTNIK?W POLSKICH W P?OCICZNIE-TARTAK","","unknow","P?OCICZNO-TARTAK","0","0","94.9923076923077","1003.5307692307692","-0.7153846153846154","6.238461538461538","5.5076923076923086","2023-04-05 00:00:00.0"
"SZKO?A PODSTAWOWA IM. JULIUSZA S?OWACKIEGO W HERBACH","UL. KATOWICKA","42-284","HERBY","18.880949","50.743272","99.44166666666666","990.0583333333334","-5.016666666666667","80.46666666666667","62.175000000000004","2023-04-05 00:00:00.0"
"SZKO?A PODSTAWOWA IM. W?.ST. REYMONTA W R?BIELICACH KR?LEWSKICH","UL. SZKOLNA","42-110","R?BIELICE KR?LEWSKIE","18.8604488","50.9958114","80.31666666666668","997.6750000000001","-3.125","109.16666666666667","89.73333333333333","2023-04-05 00:00:00.0"
"SZKO?A PODSTAWOWA W MARKLOWICACH G?RNYCH","UL. SZKOLNA","43-410","MARKLOWICE G?RNE","18.5829587","49.890108","69.25","997.2916666666666","-2.1999999999999997","33.63333333333333","24.733333333333334","2023-04-05 00:00:00.0"
"SZKO?A PODSTAWOWA W D?BROWIE","UL. PARKOWA","46-112","D?BROWA","17.799011","50.9711671","100.0","1007.7833333333333","-2.0416666666666665","37.81666666666667","28.175","2023-04-05 00:00:00.0"
"SZKO?A PODSTAWOWA IM. WO?Y?SKIEJ BRYGADY KAWALERII W MIED?NIE","UL. SZKOLNA","42-120","MIED?NO","18.9868811","50.9680679","80.31666666666666","997.9499999999999","-3.216666666666667","83.425","70.5","2023-04-05 00:00:00.0"
"TECHNIKUM NR 1 W TARNOWSKICH G?RACH","UL. OPOLSKA","42-600","TARNOWSKIE G?RY","18.849052","50.446684","71.31666666666666","987.6500000000001","-2.3249999999999997","112.47500000000001","100.16666666666667","2023-04-05 00:00:00.0"
"SZKO?A PODSTAWOWA NR 3 IM. JANA HEMPLA W WYSZKOWIE","UL. STEFANA BATOREGO","07-201","WYSZK?W","21.458395","52.5928523","84.20833333333333","1014.2083333333334","0.6","15.966666666666667","14.15","2023-04-05 00:00:00.0"
"SZKO?A PODSTAWOWA W KR?LEWIE","","09-131","KR?LEWO","20.5648353","52.6353613","81.54166666666667","1011.9083333333333","-2.966666666666667","127.75833333333333","104.27499999999999","2023-04-05 00:00:00.0"
"SPO?ECZNA SZKO?A PODSTAWOWA Z ODDZIA?EM PRZEDSZKOLNYM W ZA?U?U","","37-600","ZA?U?E","23.170994","50.1994769","99.98181818181818","996.0","-0.7909090909090909","23.036363636363635","20.927272727272726","2023-04-05 00:00:00.0"
"SZKO?A PODSTAWOWA IM. JANA PAW?A II W LUBATOWEJ","","38-440","LUBATOWA","21.76125","49.5404048","76.49230769230769","972.8692307692307","-0.4230769230769231","18.492307692307694","14.73076923076923","2023-04-05 00:00:00.0"
"TECHNIKUM W SEJNACH","UL. KONARSKIEGO","16-500","SEJNY","23.33861373","54.10713149","88.96666666666665","1004.3166666666666","-0.6083333333333333","1.9833333333333334","1.4000000000000001","2023-04-05 00:00:00.0"
"SZKO?A PODSTAWOWA NR 2 W ROPCZYCACH","UL. ROBOTNICZA","39-100","ROPCZYCE","21.5863232","50.0775233","65.01666666666667","997.6166666666667","0.19999999999999998","17.033333333333335","14.791666666666666","2023-04-05 00:00:00.0"
"SZKO?A PODSTAWOWA IM. C.K. NORWIDA W D?BR?WCE","UL. TADEUSZA KO?CIUSZKI","05-252","D?BR?WKA","21.2966041","52.4866867","78.28999999999999","1013.22","1.09","8.89","6.83","2023-04-05 00:00:00.0"
"PUBLICZNA SZKO?A PODSTAWOWA IM. JANA PAW?A II W SARN?WKU","","27-400","SARN?WEK DU?Y","21.436512","51.006609","85.21538461538461","999.2","-2.3","18.346153846153847","14.907692307692308","2023-04-05 00:00:00.0"
"SZKO?A PODSTAWOWA W PILCHOWICACH","UL. SZKOLNA","44-145","PILCHOWICE","18.55892249999911","50.21769552978952","83.8","997.1","-4.05","37.0","25.3","2023-04-05 00:00:00.0"
"SZKO?A PODSTAWOWA W ROGOWICACH","","26-080","ROGOWICE","20.558991380964468","51.03562685582885 ","84.71666666666667","987.6750000000001","-3.466666666666667","75.15833333333333","61.99166666666667","2023-04-05 00:00:00.0"
"SZKO?A PODSTAWOWA W SIDRZE","UL. SZKOLNA","16-124","SIDRA","23.4487107","53.5532039","93.375","1004.3833333333333","-0.7916666666666666","15.983333333333334","14.075000000000001","2023-04-05 00:00:00.0"
"SZKO?A PODSTAWOWA W KU?NICY","UL. JAGIELLO?SKA","16-123","KU?NICA","23.6492992","53.5106708","100.0","1003.275","-0.6833333333333332","14.991666666666667","11.75","2023-04-05 00:00:00.0"
"SZKO?A PODSTAWOWA NR 2 IM. ROMUALDA TRAUGUTTA W CZARNEJ BIA?OSTOCKIEJ","UL. TRAUGUTTA","16-020","CZARNA BIA?OSTOCKA","23.2856814","53.3015522","93.28333333333335","1002.1833333333334","-0.6583333333333333","10.65","9.875","2023-04-05 00:00:00.0"
"SZKO?A PODSTAWOWA IM. MARII KONOPNICKIEJ W OPATOWIE","UL. SZKOLNA","42-152","OPAT?W","18.8226827","50.9545445","76.32307692307693","996.2153846153846","-3.053846153846154","51.50769230769231","34.44615384615385","2023-04-05 00:00:00.0"
"SZKO?A PODSTAWOWA IM. TADEUSZA KO?CIUSZKI W ??TOWICACH","","33-121","??TOWICE","20.845262","49.994632","56.025","999.5","0.3","23.724999999999998","20.0","2023-04-05 00:00:00.0"
"SZKO?A PODSTAWOWA IM. IGNACEGO ?UKASIEWICZA W KOBYLANCE","","38-303","KOBYLANKA","21.222151","49.669007","68.41666666666667","988.8083333333333","0.3416666666666666","27.150000000000002","24.758333333333336","2023-04-05 00:00:00.0"
"TECHNIKUM IM. KSI?CIA BOLKA II W STRZEGOMIU","UL. KR?TKA","58-150","STRZEGOM","16.34410641","50.95893977","70.06666666666666","997.4916666666667","-1.2166666666666666","26.474999999999998","21.833333333333332","2023-04-05 00:00:00.0"
"SZKO?A PODSTAWOWA NR 6 Z ODDZIA?AMI INTEGRACYJNYMI IM. JANA PAW?A II W ?AZISKACH G?RNYCH","UL. WYRSKA","43-173","?AZISKA G?RNE","18.8703811","50.1362116","65.28333333333333","989.35","-1.8666666666666665","60.375","45.88333333333333","2023-04-05 00:00:00.0"
"SZKO?A PODSTAWOWA IM.JANUSZA KORCZAKA W GNIEWKOWIE","","58-173","GNIEWK?W","16.223964","50.994542","79.4090909090909","999.0363636363636","-2.272727272727273","35.20909090909091","26.536363636363635","2023-04-05 00:00:00.0"
"SZKO?A PODSTAWOWA IM. ADAMA MICKIEWICZA W UJKOWICACH","","37-713","UJKOWICE","22.7221522","49.8381351","70.98333333333333","990.8416666666667","0.6749999999999999","24.058333333333334","20.683333333333334","2023-04-05 00:00:00.0"
"SZKO?A PODSTAWOWA IM. ?WI?TEGO MIKO?AJA W PASTUCHOWIE","UL. WYZWOLENIA","58-115","PASTUCH?W","16.437169","50.949092","83.51666666666667","999.3333333333334","-1.8166666666666667","47.26666666666667","38.199999999999996","2023-04-05 00:00:00.0"
"SZKO?A PODSTAWOWA NR 5 IM. JANA BRZECHWY Z J?ZYKIEM MNIEJSZO?CI NIEMIECKIEJ W RACIBORZU","UL. BOJANOWSKA","47-400","RACIB?RZ","19.145136","51.919438","87.73333333333333","1001.4666666666667","-2.283333333333333","45.99166666666667","33.28333333333333","2023-04-05 00:00:00.0"
"SZKO?A PODSTAWOWA IM.?W. JANA DE LA SALLE W CZ?STOCHOWIE","UL. GEN. KAZIMIERZA PU?ASKIEGO","42-217","CZ?STOCHOWA","19.1029461","50.8039173","77.60000000000001","993.5583333333334","-3.0833333333333335","171.875","151.65833333333333","2023-04-05 00:00:00.0"
"SZKO?A PODSTAWOWA NR 2 IM. TADEUSZA KO?CIUSZKI W WIELICZCE","UL. STANIS?AWA MONIUSZKI","32-020","WIELICZKA","20.059786","49.98544","53.03846153846154","995.9692307692308","0.6615384615384615","19.053846153846152","19.053846153846152","2023-04-05 00:00:00.0"
"SZKO?A PODSTAWOWA IM. OR?A BIA?EGO W MARSZOWICACH","","32-420","MARSZOWICE","20.2362141","49.9174139","60.39166666666667","996.3083333333334","0.049999999999999996","19.841666666666665","18.925","2023-04-05 00:00:00.0"
"SZKO?A PODSTAWOWA NR 28 IM. ""LUBUSKICH RODZIN KATY?SKICH"" W ZESPOLE EDUKACYJNYM NR 8 W ZIELONEJ G?RZE","UL. ZAWADA-SZKOLNA","66-001","ZIELONA G?RA","15.5568495","51.992893","68.11666666666666","1019.6333333333333","1.075","16.425","14.641666666666666","2023-04-05 00:00:00.0"
"SZKO?A PODSTAWOWA W DOBRZYNIEWIE DU?YM","UL. SZKOLNA","16-002","DOBRZYNIEWO DU?E","23.0111979","53.1993434","87.86","1006.15","-0.6599999999999999","11.68","10.6","2023-04-05 00:00:00.0"
"BRAN?OWA SZKO?A I STOPNIA NR 4 W SZCZECINIE","UL. GEN. J?ZEFA SOWI?SKIEGO","70-236","SZCZECIN","14.539421","53.418348","57.15","1023.6083333333332","2.3666666666666667","36.75","30.95","2023-04-05 00:00:00.0"
"II LICEUM OG?LNOKSZTA?C?CE IM. ZIEMI OLKUSKIEJ W OLKUSZU","UL. STEFANA ?EROMSKIEGO","32-305","OLKUSZ","19.5635115","50.2659999","62.51666666666667","975.7333333333332","-1.6833333333333333","27.683333333333334","24.325","2023-04-05 00:00:00.0"
"ZESP?? SZKOLNO-PRZEDSZKOLNY INTEGRACYJNY NR 1 W OLKUSZU - SZKO?A PODSTAWOWA NR 2 Z ODDZIA?AMI INTEGRACYJNYMI IM. J.IWASZKIEWICZA W OLKUSZU","UL. JANA KOCHANOWSKIEGO","32-305","OLKUSZ","19.5656869","50.2813157","70.97692307692309","975.4846153846154","-2.8923076923076922","33.11538461538461","22.123076923076926","2023-04-05 00:00:00.0"
"TECHNIKUM W GIEBU?TOWIE W ZESPOLE SZK?? PONADPODSTAWOWYCH IM. WINCENTEGO WITOSA W GIEBU?TOWIE","OS. SZKOLNE","32-085","GIEBU?T?W","19.8869657","50.1393595","41.94166666666667","987.7833333333333","4.375","12.125","11.158333333333333","2023-04-05 00:00:00.0"
"SZKO?A PODSTAWOWA W GROMCU","UL. HUSARSKA","32-590","GROMIEC","19.2846434","50.0550119","64.92307692307692","997.0615384615384","-2.0846153846153848","29.192307692307693","20.54615384615385","2023-04-05 00:00:00.0"
"SZKO?A PODSTAWOWA IM. ?W.KR?LOWEJ JADWIGI W JERZMANOWICACH","UL. SZKOLNA","32-048","JERZMANOWICE","19.7463992","50.2118918","73.64166666666667","971.4916666666667","-2.8833333333333333","19.941666666666666","20.375","2023-04-05 00:00:00.0"
"SZKO?A PODSTAWOWA NR 3 IM. FLAGI POLSKI W LIBI??U","UL. ?WI?TEJ BARBARY","32-590","LIBI??","19.3156774","50.1037928","59.99166666666667","989.2666666666668","-1.3833333333333335","61.46666666666667","49.324999999999996","2023-04-05 00:00:00.0"
"SZKO?A PODSTAWOWA IM.STULECIA ODZYSKANIA NIEPODLEG?O?CI POLSKI W MINODZE","","32-043","MINOGA","19.9006661","50.2420125","69.58333333333333","984.8083333333334","-2.158333333333333","17.258333333333333","15.65","2023-04-05 00:00:00.0"
"SZKO?A PODSTAWOWA IM. TADEUSZA KO?CIUSZKI W RAC?AWICACH","","32-222","RAC?AWICE","20.2357084","50.3240018","71.10833333333333","991.4833333333332","-1.1583333333333334","29.583333333333332","24.641666666666666","2023-04-05 00:00:00.0"
"NIEPUBLICZNA SZKO?A PODSTAWOWA IM. LEONARDA DA VINCI W SU?KOWICACH","SU?KOWICE","32-095","SU?KOWICE","19.9266258","50.2316951","68.85000000000001","987.0","-1.4749999999999999","14.35","13.066666666666668","2023-04-05 00:00:00.0"
"SZKO?A PODSTAWOWA IM. J?ZEFA PI?SUDSKIEGO W WOLI ZACHARIASZOWSKIEJ","UL. ?WI?TEGO FLORIANA","32-087","WOLA ZACHARIASZOWSKA","19.932638999999995","50.1505174316246","64.32000000000001","988.04","-1.08","10.870000000000001","9.96","2023-04-05 00:00:00.0"
"I LICEUM OG?LNOKSZTA?C?CE IM. MARCINA WADOWITY W WADOWICACH","UL. MICKIEWICZA","34-100","WADOWICE","19.48966","49.883822","60.6","992.1","-0.26666666666666666","46.833333333333336","35.25","2023-04-05 00:00:00.0"
"PUBLICZNA SZKO?A PODSTAWOWA IM. HENRYKA SIENKIEWICZA W BIERWCACH","","26-660","BIERWCE","21.1684745","51.5663509","72.19166666666666","1005.4","-1.8","50.68333333333334","42.550000000000004","2023-04-05 00:00:00.0"
"SZKO?A PODSTAWOWA SPECJALNA W GR?JCU SZKO?A FILIALNA W NOWEJ WSI","","05-660","NOWA WIE?","22.0359008","50.1007956","70.825","1007.8666666666667","-1.2416666666666667","24.816666666666666","18.775","2023-04-05 00:00:00.0"
"PUBLICZNA SZKO?A PODSTAWOWA IM.BOHATER?W WRZE?NIA1939 W ?UKAWCU","","37-626","?UKAWIEC","23.113522","50.0801159","73.675","996.3916666666665","-0.05833333333333333","23.258333333333336","20.875","2023-04-05 00:00:00.0"
"I LICEUM OG?LNOKSZTA?C?CE IM. BARTOSZA G?OWACKIEGO W TOMASZOWIE LUBELSKIM","UL. WYSPIA?SKIEGO","22-600","TOMASZ?W LUBELSKI","23.41242","50.4428399","76.46153846153847","988.5538461538462","-1.1538461538461537","30.684615384615384","25.16923076923077","2023-04-05 00:00:00.0"
"LICEUM OG?LNOKSZTA?C?CE IM. CYPRIANA KAMILA NORWIDA W MO?KACH","UL. TYSI?CLECIA","19-100","MO?KI","22.804277","53.404480516","98.175","1001.625","-0.7166666666666667","14.200000000000001","13.766666666666666","2023-04-05 00:00:00.0"
"TECHNIKUM W MO?KACH","UL. SZKOLNA","19-100","MO?KI","22.793105","53.401592","98.58181818181819","1000.7090909090911","-0.8363636363636364","10.52727272727273","9.30909090909091","2023-04-05 00:00:00.0"
"NIEPUBLICZNE LICEUM OG?LNOKSZTA?C?CE W BIELAWIE","UL. WOLNO?CI","58-260","BIELAWA","16.6516018","50.7381464","66.125","989.0083333333333","-1.3","36.1","23.650000000000002","2023-04-05 00:00:00.0"
"SZKO?A PODSTAWOWA Z ODDZIA?AMI INTEGRACYJNYMI NR 105 IM. LUDWIKI WAWRZY?SKIEJ W KRAKOWIE","OS. OSIEDLE S?ONECZNE","31-958","KRAK?W-NOWA HUTA","20.042014","50.078466","52.50833333333333","998.7416666666667","0.6333333333333333","20.175","16.575","2023-04-05 00:00:00.0"
"SZKO?A PODSTAWOWA W WOLI WIELKIEJ","","39-218","WOLA WIELKA","21.342836","50.08146","72.50833333333334","999.3166666666666","0.19999999999999998","27.150000000000002","22.066666666666666","2023-04-05 00:00:00.0"
"PUBLICZNA SZKO?A PODSTAWOWA IM. JANA PAW?A II W BRZE?NICY","UL. SZKOLNA","39-207","BRZE?NICA","21.485064","50.103691","66.26666666666667","1000.9166666666666","0.5916666666666667","17.666666666666668","16.183333333333334","2023-04-05 00:00:00.0"
"PUBLICZNA SZKO?A PODSTAWOWA W LATOSZYNIE","","39-200","LATOSZYN","21.38439","50.02607","68.825","996.6916666666667","0.8083333333333332","31.599999999999998","22.15833333333333","2023-04-05 00:00:00.0"
"SZKO?A PODSTAWOWA IM. NOBLIST?W POLSKICH W BRZEZIEJ ??CE","UL. SZKOLNA","55-093","BRZEZIA ??KA","17.2485849","51.12506","65.90833333333333","1009.2833333333333","1.0","45.88333333333333","33.324999999999996","2023-04-05 00:00:00.0"
"SPECJALNA PRZYSZPITALNA NIEPUBLICZNA SZKO?A PODSTAWOWA PRZY SUDECKIM CENTRUM ZDROWIA W PIESZYCACH","UL. KSI?DZA EMILA PAGACZA","58-250","PIESZYCE","16.58036735","50.71553783","74.06666666666666","988.2583333333333","-2.575","25.508333333333336","19.2","2023-04-05 00:00:00.0"
"TECHNIKUM KSZTA?TOWANIA ?RODOWISKA W SZCZECINIE","UL. PORTOWA","70-833","SZCZECIN","14.669609","53.399056","60.90833333333333","1026.0583333333334","3.15","27.03333333333333","22.09166666666667","2023-04-05 00:00:00.0"
"SZKO?A PODSTAWOWA NR 10 IM. MIKO?AJA KOPERNIKA W G?OGOWIE","UL. ANDROMEDY","67-200","G?OG?W","16.0628868","51.6534984","60.96666666666667","1011.9666666666667","2.0833333333333335","14.116666666666667","11.633333333333333","2023-04-05 00:00:00.0"
"SZKO?A PODSTAWOWA IM. J?ZEFA LOMPY W LUBSZY","UL. SZKOLNA","42-287","LUBSZA","18.9962539","50.6125221","72.32307692307693","981.8076923076923","-2.861538461538461","61.92307692307692","47.53846153846154","2023-04-05 00:00:00.0"
"SZKO?A PODSTAWOWA NR 58 IM. IRENY SENDLEROWEJ W BYDGOSZCZY","UL. GDA?SKA","85-005","BYDGOSZCZ","18.006526","53.13014","67.15833333333333","1020.1416666666668","1.4166666666666667","31.816666666666666","22.15833333333333","2023-04-05 00:00:00.0"
"ZESP?? SZK?? SPECJALNYCH NR 102 W WARSZAWIE","UL. DERKACZY","04-963","WARSZAWA","21.20527549","52.16464066","79.2","1013.8000000000001","-0.47500000000000003","17.608333333333334","17.433333333333334","2023-04-05 00:00:00.0"
"BRAN?OWA SZKO?A I STOPNIA IM. KPT. STEFANA POGONOWSKIEGO W RADZYMINIE","UL. KOMUNALNA","05-250","RADZYMIN","21.1891905","52.4148957","77.89166666666667","1014.0500000000001","1.1916666666666667","24.541666666666668","20.158333333333335","2023-04-05 00:00:00.0"
"PUBLICZNA SZKO?A PODSTAWOWA NR 5 IM.MARII D?BROWSKIEJ W RADOMIU","UL. GEN. J?ZEFA SOWI?SKIEGO","26-600","RADOM","21.1619916","51.41283841","63.19","1004.6200000000001","-0.6900000000000001","33.4","28.080000000000002","2023-04-05 00:00:00.0"
"SZKO?A PODSTAWOWA W PO?KUNACH","","16-500","PO?KUNY","23.4302158","54.0869616","96.86666666666667","1004.2416666666667","-0.7333333333333334","1.45","0.975","2023-04-05 00:00:00.0"
"SZKO?A PODSTAWOWA IM. ?WI?TEJ KR?LOWEJ JADWIGI W DYDNI","","36-204","DYDNIA","22.1746713","49.6854658","69.60000000000001","987.975","0.10833333333333334","24.916666666666668","23.183333333333334","2023-04-05 00:00:00.0"
"LICEUM OG?LNOKSZTA?C?CE IM. ROMANA CZERNECKIEGO W SZCZEKOCINACH","UL. SPACEROWA","42-445","SZCZEKOCINY","19.823275","50.619208","84.31666666666666","992.5666666666666","-2.8833333333333333","43.800000000000004","32.291666666666664","2023-04-05 00:00:00.0"
"PUBLICZNA SZKO?A PODSTAWOWA W CEG?OWIE - FILIA W PIASECZNIE","","05-319","PIASECZNO","21.7213942","52.1363862","96.325","1003.3499999999999","-1.9083333333333332","22.78333333333333","18.133333333333333","2023-04-05 00:00:00.0"
"SZKO?A PODSTAWOWA NR 20 IM. GEN. W?ADYS?AWA SIKORSKIEGO W BIA?YMSTOKU","UL. LE?NA","15-559","BIA?YSTOK","23.1014693","53.1339392","90.21666666666665","1005.3499999999999","-0.5166666666666667","18.833333333333332","15.408333333333333","2023-04-05 00:00:00.0"
"SZKO?A PODSTAWOWA IM. EDWARDA SZYMA?SKIEGO W STOCZKU","UL. W?GROWSKA","07-104","STOCZEK","21.9001015","52.5429093","91.4","1007.9307692307692","-1.3384615384615384","17.6","17.6","2023-04-05 00:00:00.0"
"SZKO?A PODSTAWOWA IM. C.K. NORWIDA W D?BINKACH","UL. C. K. NORWIDA","07-230","D?BINKI","21.4224042","52.4770923","87.89166666666667","1012.2916666666666","-0.27499999999999997","10.1","8.291666666666666","2023-04-05 00:00:00.0"
"TECHNIKUM NR 5 W ZABRZU W ZESPOLE SZK?? SPO?YWCZYCH IM. DR BRONIS?AWA HAGERA W ZABRZU","UL. FRANCISZKA?SKA","41-819","ZABRZE","18.768076","50.3132502","69.55","996.2416666666667","-2.066666666666667","39.266666666666666","27.708333333333332","2023-04-05 00:00:00.0"
"SZKO?A PODSTAWOWA W KOPIENICY","UL. 1 MAJA","42-674","KOPIENICA","18.6504282","50.4496034","86.47500000000001","991.0583333333334","-3.2916666666666665","46.50833333333333","34.800000000000004","2023-04-05 00:00:00.0"
"SZKO?A PODSTAWOWA W K?ODNICY DOLNEJ","","24-224","K?ODNICA DOLNA","22.28477957","51.06632652","93.98461538461538","997.4000000000001","-1.2461538461538462","22.846153846153847","19.753846153846155","2023-04-05 00:00:00.0"
"BRAN?OWA SZKO?A I STOPNIA SPECJALNA NR 1 W GOLENIOWIE","UL. NIEPODLEG?O?CI","72-100","GOLENI?W","14.8193","53.570509","71.23333333333333","1024.5416666666667","2.8666666666666667","29.433333333333334","21.041666666666668","2023-04-05 00:00:00.0"
"SZKO?A PODSTAWOWA NR 3 IM.?O?NIERZA POLSKIEGO UL.CZWARTAK?W 2 W Z?OCIE?CU","UL. CZWARTAK?W","78-524","Z?OCIENIEC","16.048539","53.541936","74.53333333333333","1009.9499999999999","0.7916666666666666","39.833333333333336","28.2","2023-04-05 00:00:00.0"
"SZKO?A PODSTAWOWA IM. KRZYSZTOFA KAMILA BACZY?SKIEGO W I?SKU","UL. POPRZECZNA","73-140","I?SKO","15.55039","53.43606","82.54166666666667","1010.6583333333333","2.9166666666666665","9.391666666666667","6.608333333333333","2023-04-05 00:00:00.0"
"PUBLICZNA SZKO?A PODSTAWOWA NR 3 IM. MIKO?AJA KOPERNIKA W BRZESKU","UL. LEGION?W PI?SUDSKIEGO","32-800","BRZESKO","20.612038","49.97275","61.01666666666667","996.775","-0.14166666666666666","20.3","18.55","2023-04-05 00:00:00.0"
"TECHNIKUM W KADZIDLE","UL. S?ONECZNA","07-420","KADZID?O","21.464272","53.23041","95.19166666666666","1010.1583333333333","-1.575","23.3","18.116666666666667","2023-04-05 00:00:00.0"
"LICEUM OG?LNOKSZTA?C?CE W ZESPOLE SZK?? W R??ANIE","UL. WARSZAWSKA","06-320","R??AN","21.391333","52.88777","94.33333333333333","1008.5166666666668","-1.3333333333333333","26.958333333333332","21.241666666666667","2023-04-05 00:00:00.0"
"SZKO?A PODSTAWOWA SPECJALNA NR 40 W ZABRZU","UL. BYTOMSKA","41-803","ZABRZE","18.829083","50.32397","74.40833333333333","993.0333333333333","-1.9666666666666668","50.458333333333336","39.28333333333333","2023-04-05 00:00:00.0"
"III LICEUM OG?LNOKSZTA?C?CE W PABIANICACH","UL. GDA?SKA","95-200","PABIANICE","19.36155263","51.66500025","81.40833333333333","1001.8666666666667","0.4166666666666667","42.916666666666664","34.266666666666666","2023-04-05 00:00:00.0"
"SZKO?A PODSTAWOWA IM. MIKO?AJA KOPERNIKA W SZYMANOWIE","UL. SZKOLNA","96-516","SZYMAN?W","20.37452291","52.16117","67.78333333333333","1013.5083333333333","1.1416666666666666","34.75833333333333","29.28333333333333","2023-04-05 00:00:00.0"
"SZKO?A PODSTAWOWA IM. MIKO?AJA KOPERNIKA W MIKO?AJOWICACH","","33-121","MIKO?AJOWICE","20.869079","49.979718","61.80833333333334","1000.1666666666666","1.0833333333333333","14.141666666666666","12.308333333333332","2023-04-05 00:00:00.0"
"SZKO?A PODSTAWOWA IM. FRYDERYKA CHOPINA W BUDKACH PIASECKICH","","96-516","BUDKI PIASECKIE","20.33231767","52.19724553","71.0","1013.1583333333333","-0.2916666666666667","71.925","51.975","2023-04-05 00:00:00.0"
"BRAN?OWA SZKO?A I STOPNIA W SOCHACZEWIE","UL. MARSZA?KA J?ZEFA PI?SUDSKIEGO","96-500","SOCHACZEW","20.24313864","52.21990386","72.58181818181818","1013.0636363636364","-0.6","123.26363636363637","102.16363636363636","2023-04-05 00:00:00.0"
"SZKO?A PODSTAWOWA W GNIECHOWICACH","UL. SZKOLNA","55-080","GNIECHOWICE","16.832592","50.990853","74.23333333333333","1008.5","-0.48333333333333334","62.64166666666667","48.11666666666667","2023-04-05 00:00:00.0"
"SZKO?A PODSTAWOWA  NR 10 IM. BOLES?AWA ZWOLI?SKIEGO  W SIERADZU","UL. ALEJA GRUNWALDZKA","98-200","SIERADZ","18.71710516","51.5908083","72.96666666666667","1006.725","0.8583333333333334","28.741666666666664","23.34166666666667","2023-04-05 00:00:00.0"
"SZKO?A PODSTAWOWA SPECJALNA NR 23 W CZ?STOCHOWIE","UL. LEGION?W","42-202","CZ?STOCHOWA","19.1516031","50.80589628","80.24166666666666","995.6500000000001","-3.3333333333333335","142.38333333333333","122.375","2023-04-05 00:00:00.0"
"SZKO?A PODSTAWOWA IM. POWSTA?C?W STYCZNIOWYCH W KRUSZYNIE","UL. POCZTOWA","42-282","KRUSZYNA","19.27871369","50.96725877","81.20833333333333","996.5083333333333","-2.3333333333333335","114.325","90.75","2023-04-05 00:00:00.0"
"SZKO?A PODSTAWOWA NR 36 IM. JOHNA BAILDONA W GLIWICACH","UL. ROBOTNICZA","44-100","GLIWICE","18.68979652","50.28995971","73.66666666666667","998.4250000000001","-1.95","52.21666666666667","38.15","2023-04-05 00:00:00.0"
"BRAN?OWA SZKO?A SPECJALNA I STOPNIA W ??CZYCY","UL. KALISKA","99-100","??CZYCA","19.19969","52.05959","78.54166666666667","1011.0666666666666","1.0250000000000001","13.516666666666666","11.258333333333333","2023-04-05 00:00:00.0"
"SZKO?A PODSTAWOWA NR 1 IM. KR?LOWEJ JADWIGI W KONSTANTYNOWIE ??DZKIM","UL. ??DZKA","95-050","KONSTANTYN?W ??DZKI","19.354178","51.748192","84.90833333333333","1003.6333333333333","-0.4583333333333333","35.0","31.958333333333332","2023-04-05 00:00:00.0"
"SZKO?A PODSTAWOWA W S?OWIKU W ZESPOLE SZKOLNO-PRZEDSZKOLNYM W S?OWIKU","UL. PODLASKA","42-263","S?OWIK","19.1785632","50.7475999","87.35833333333333","993.9583333333334","-4.583333333333333","30.425","23.208333333333332","2023-04-05 00:00:00.0"
"BRAN?OWA SZKO?A I STOPNIA NR 1 W ZESPOLE SZK?? TECHNICZNYCH I PLAC?WEK IM. STANIS?AWA STASZICA W NOWYM TARGU","UL. WOJSKA POLSKIEGO","34-400","NOWY TARG","20.025719","49.472942","74.05","951.8166666666666","-2.7083333333333335","26.3","23.983333333333334","2023-04-05 00:00:00.0"
"SZKO?A PODSTAWOWA IM. KARDYNA?A KAROLA WOJTY?Y W ZASKALU","UL. KARDYNA?A KAROLA WOJTY?Y","34-424","ZASKALE","19.9956008","49.4457208","76.58333333333333","947.2083333333334","-3.6916666666666664","23.241666666666664","21.849999999999998","2023-04-05 00:00:00.0"
"SZKO?A PODSTAWOWA NR 7 IM. HUGONA KO???TAJA W BIA?YMSTOKU","UL. WIATRAKOWA","15-827","BIA?YSTOK","23.14176339","53.14087454","99.88461538461539","1005.2692307692307","-0.49230769230769234","9.853846153846153","7.484615384615385","2023-04-05 00:00:00.0"
"TECHNIKUM W ZESPOLE SZK?? W DOWSPUDZIE","","16-420","DOWSPUDA","22.802537","53.978353","90.54166666666667","1002.9","-0.35833333333333334","4.4750000000000005","3.408333333333333","2023-04-05 00:00:00.0"
"SZKO?A PODSTAWOWA NR 85 IM. KS. KAZIMIERZA JANCARZA W KRAKOWIE","OS. OSIEDLE Z?OTEGO WIEKU","31-615","KRAK?W-NOWA HUTA","20.000041997569085","50.09770523236809 ","56.675000000000004","993.4333333333334","0.9166666666666666","10.591666666666667","8.875","2023-04-05 00:00:00.0"
"SZKO?A PODSTAWOWA NR 13 IM. ORL?T LWOWSKICH W G?OGOWIE","UL. AKACJOWA","67-200","G?OG?W","16.126478","51.6531803","58.36923076923077","1015.2076923076924","2.7","34.746153846153845","23.792307692307695","2023-04-05 00:00:00.0"
"TECHNIKUM NR 5 W WA?BRZYCHU","AL. WYZWOLENIA","58-300","WA?BRZYCH","16.2784203","50.770552","73.43333333333334","974.2583333333333","-2.3583333333333334","112.10000000000001","100.83333333333333","2023-04-05 00:00:00.0"
"SZKO?A PODSTAWOWA NR 25 IM.MJRA HENRYKA SUCHARSKIEGO W ZESPOLE EDUKACYJNYM NR 5 W ZIELONEJ G?RZE","UL. OCHLA-SZKOLNA","66-006","ZIELONA G?RA","15.473795","51.878656","73.8","1015.9692307692308","2.5153846153846158","75.3","66.02307692307691","2023-04-05 00:00:00.0"
"SZKO?A PODSTAWOWA IM. OJCA ?WI?TEGO JANA PAWA?A II W MIETKOWIE","UL. KOLEJOWA","55-081","MIETK?W","16.653863","50.979778","67.81666666666666","1007.025","-0.3083333333333333","49.19166666666666","38.675000000000004","2023-04-05 00:00:00.0"
"ZESP?? SZKOLNO-PRZEDSZKOLNY-SZKO?A PODSTAWOWA IM. MARSZA?KA J?ZEFA PI?SUDSKIEGO W ZAG?RZU","","32-005","ZAG?RZE","22.26707","49.5143","57.791666666666664","997.375","0.8500000000000001","15.0","14.700000000000001","2023-04-05 00:00:00.0"
"SZKO?A PODSTAWOWA IM. JANUSZA KORCZAKA W BIEDRZYCHOWICACH","","59-830","BIEDRZYCHOWICE","15.3794474","51.0398464","65.05","985.1083333333332","-1.2333333333333334","41.025","31.099999999999998","2023-04-05 00:00:00.0"
"SZKO?A PODSTAWOWA NR 1 W OLSZYNIE","UL. WOLNO?CI","59-830","OLSZYNA","15.37595055","51.06543341","81.91666666666667","997.0500000000001","-1.8166666666666667","103.85833333333333","83.47500000000001","2023-04-05 00:00:00.0"
"SZKO?A PODSTAWOWA IM.STEFANA ?EROMSKIEGO W TRZCI?SKU-ZDROJU","UL. 2 LUTEGO","74-510","TRZCI?SKO-ZDR?J","14.607718","52.966893","91.25","1020.1166666666667","1.0416666666666667","33.891666666666666","25.116666666666664","2023-04-05 00:00:00.0"
"LICEUM OG?LNOKSZTA?C?CE IM. HENRYKA SIENKIEWICZA W NOWEJ RUDZIE","OS. PIASTOWSKIE","57-400","NOWA RUDA","16.49718392","50.58148236","78.06666666666666","978.5666666666666","-3.841666666666667","96.74166666666667","79.22500000000001","2023-04-05 00:00:00.0"
"SZKO?A PODSTAWOWA IM. LANCKORO?SKICH W ZAKLICZYNIE","UL. JACKA MALCZEWSKIEGO","32-840","ZAKLICZYN","20.816176","49.855242","62.88333333333333","996.5833333333334","0.7000000000000001","8.616666666666667","7.75","2023-04-05 00:00:00.0"
"LICEUM OG?LNOKSZTA?C?CE Z ODDZIA?AMI DWUJ?ZYCZNYMI IM. BOLES?AWA CHROBREGO W BIELAWIE","UL. SZKOLNA","58-260","BIELAWA","16.612986","50.683073","67.84166666666667","986.6583333333333","-1.425","58.65","47.75833333333333","2023-04-05 00:00:00.0"
"SZKO?A PODSTAWOWA NR 3 IM. BOHATER?W MONTE CASSINO W ZABRZU","UL. RTM. WITOLDA PILECKIEGO","41-800","ZABRZE","18.791714","50.296268","64.81666666666666","992.6833333333334","-0.6916666666666668","128.13333333333333","96.18333333333334","2023-04-05 00:00:00.0"
"SZKO?A PODSTAWOWA NR 1 IM. PIESZYCKIEJ HARCERSKIEJ ORGANIZACJI PODZIEMNEJ W PIESZYCACH","UL. OGRODOWA","58-250","PIESZYCE","16.585028","50.713016","63.599999999999994","989.6307692307693","-1.3153846153846156","42.36923076923077","32.06153846153846","2023-04-05 00:00:00.0"
"SZKO?A PODSTAWOWA W RUDZICY","","43-394","RUDZICA","18.9050456","49.849154","62.225","983.7916666666666","-1.4083333333333332","37.0","29.433333333333334","2023-04-05 00:00:00.0"
"SZKO?A PODSTAWOWA IM. JANA PAW?A II W WIKIELCU","","14-200","WIKIELEC","19.5189377","53.5801618","71.72500000000001","1010.9666666666667","-0.8083333333333332","28.666666666666668","22.458333333333332","2023-04-05 00:00:00.0"
"SZKO?A PODSTAWOWA IM. TW?RC?W LITERATURY DZIECI?CEJ W Z?BROWIE","UL. SZKOLNA","14-241","Z?BROWO","19.4557253","53.6364963","82.175","1011.5749999999999","-1.1833333333333333","47.699999999999996","33.21666666666667","2023-04-05 00:00:00.0"
"SZKO?A PODSTAWOWA IM. MICHA?A LENGOWSKIEGO W RUDZIENICACH","UL. SZKOLNA","14-204","RUDZIENICE","19.6657758","53.62897","68.75833333333334","1010.3000000000001","-1.2","11.808333333333332","10.424999999999999","2023-04-05 00:00:00.0"
"SZKO?A PODSTAWOWA IM HENRYKA POBO?NEGO W TOMIS?AWIU","","59-724","TOMIS?AW","15.4271019","51.2944897","81.74166666666666","1003.8333333333334","-2.3583333333333334","45.90833333333333","35.925000000000004","2023-04-05 00:00:00.0"
"ZESP?? SZK?? NR4-SZKO?A PODSTAWOWA W SOPOTNI WIELKIEJ","","34-340","SOPOTNIA WIELKA","19.2960436","49.5925166","76.08333333333333","947.8833333333333","-3.783333333333333","35.358333333333334","30.641666666666666","2023-04-05 00:00:00.0"
"SZKO?A PODSTAWOWA NR 3 Z ODDZIA?AMI INTEGRACYJNYMI IM. ADAMA MICKIEWICZA W CHE?MIE","UL. REJOWIECKA","22-100","CHE?M","23.450305","51.144488","81.41666666666667","1000.6","-0.6833333333333332","79.55","56.38333333333333","2023-04-05 00:00:00.0"
"SZKO?A PODSTAWOWA SPECJALNA NR 12 W CHE?MIE","UL. TRUBAKOWSKA","22-100","CHE?M","23.44590149","51.13637258","82.41666666666667","998.8083333333334","-1.0833333333333333","20.73333333333333","17.875","2023-04-05 00:00:00.0"
"TECHNIKUM NR 1 W CHE?MIE","UL. STEFANA BATOREGO","22-100","CHE?M","23.497516599999994","51.13198101756866","81.13333333333334","998.1500000000001","-1.0583333333333333","40.00833333333333","32.108333333333334","2023-04-05 00:00:00.0"
"SZKO?A PODSTAWOWA NR 23 SPECJALNA W PSZCZYNIE","UL. L. ZAMENHOFA","43-200","PSZCZYNA","18.9505973","49.9729363","58.68333333333334","994.1750000000001","-1.1916666666666667","44.050000000000004","36.016666666666666","2023-04-05 00:00:00.0"
"TECHNIKUM NR 1 W OSTROWCU ?WI?TOKRZYSKIM","OS. S?ONECZNE","27-400","OSTROWIEC ?WI?TOKRZYSKI","21.39347022","50.94588695","74.51538461538462","999.0","-1.776923076923077","34.38461538461539","22.792307692307695","2023-04-05 00:00:00.0"
"SZKO?A PODSTAWOWA IM.KR?LA KAZIMIERZA WIELKIEGO W BINAROWEJ","","38-340","BINAROWA","21.2269249","49.7554945","66.23333333333333","989.975","0.525","15.025","13.941666666666668","2023-04-05 00:00:00.0"
"SZKO?A PODSTAWOWA NR 57 IM. GEN. W?ADYS?AWA ANDERSA W GDA?SKU","UL. AKSAMITNA","80-858","GDA?SK","18.6527195","54.3580527","58.0","1023.5166666666668","0.875","9.799999999999999","8.833333333333334","2023-04-05 00:00:00.0"
